% program   : RTKPOST demo5 b34L
% inp file  : C:\Users\1\Desktop\MAG-Geoshark\ELEVATION-200-3B\250814_094158.obs
% inp file  : C:\Users\1\Desktop\GNSS-EXTBASES\MKES226h.25o
% inp file  : C:\Users\1\Desktop\GNSS-EXTBASES\sp3_clk\brdc\BRDC00IGS_R_20252260000_01D_MN.rnx\BRDC00IGS_R_20252260000_01D_MN.rnx
% inp file  : C:\Users\1\Desktop\GNSS-EXTBASES\sp3_clk\gfz\GFZ0MGXRAP_20252260000_01D_05M_ORB.SP3\GBM0MGXRAP_20252260000_01D_05M_ORB.SP3
% inp file  : C:\Users\1\Desktop\GNSS-EXTBASES\sp3_clk\gfz\GFZ0MGXRAP_20252260000_01D_30S_CLK.CLK\GBM0MGXRAP_20252260000_01D_30S_CLK.CLK
% obs start : 2025/08/14 09:42:16.8 GPST (week2379 380536.8s)
% obs end   : 2025/08/14 10:01:29.6 GPST (week2379 381689.6s)
% pos mode  : Kinematic
% freqs     : L1+L2/E5b
% solution  : Forward
% elev mask : 10.0 deg
% dynamics  : on
% tidecorr  :
% ionos opt : Estimate TEC
% tropo opt : Saastamoinen
% ephemeris : Precise
% navi sys  : GPS GLONASS Galileo BDS
% amb res   : Continuous
% amb glo   : AutoCal
% val thres : 3.0
% antenna1  :                       ( 0.0000  0.0000  0.0000)
% antenna2  :                       ( 0.0000  0.0000  0.0000)
% ref pos   : 61.891264004   29.826818248   140.8409
%
% (lat/lon/height=WGS84/ellipsoidal,Q=1:fix,2:float,3:sbas,4:dgps,5:single,6:ppp,ns=# of satellites)
%  GPST          latitude(deg) longitude(deg)  height(m)   Q  ns   sdn(m)   sde(m)   sdu(m)  sdne(m)  sdeu(m)  sdun(m) age(s)  ratio
2379 380536.800   61.680999180   31.093320588    25.6893   2   6   2.4020   2.5470   3.6411   2.0221  -1.6323  -1.4733  -0.21    0.0
2379 380536.900   61.681001059   31.093327530    25.4199   2   6   1.7981   1.8555   2.6978   1.4891  -1.1410  -1.0555  -0.11    0.0
2379 380537.000   61.681001355   31.093328442    25.3741   2   6   1.5120   1.5419   2.2624   1.2429  -0.9202  -0.8631  -0.01    0.0
2379 380537.100   61.681001391   31.093329646    25.3756   2   6   1.3379   1.3545   2.0008   1.0945  -0.7872  -0.7463   0.09    0.0
2379 380537.200   61.681001352   31.093330661    25.3916   2   6   1.2183   1.2269   1.8226   0.9931  -0.6955  -0.6657   0.19    0.0
2379 380537.300   61.681001170   31.093331320    25.4316   2   6   1.1300   1.1332   1.6918   0.9184  -0.6272  -0.6056   0.29    0.0
2379 380537.400   61.681000641   31.093330494    25.5003   2   6   1.0616   1.0609   1.5908   0.8607  -0.5737  -0.5585   0.39    0.0
2379 380537.500   61.680999942   31.093329371    25.5951   2   7   1.0024   0.9875   1.5074   0.8044  -0.5149  -0.5123   0.49    0.0
2379 380537.600   61.680999105   31.093329143    25.8187   2   6   0.9584   0.9460   1.4482   0.7662  -0.4700  -0.4868  -0.40    0.0
2379 380537.700   61.680998314   31.093328672    26.0101   2   6   0.9211   0.9108   1.3979   0.7340  -0.4315  -0.4644  -0.30    0.0
2379 380537.800   61.680997604   31.093328164    26.1918   2   6   0.8891   0.8804   1.3546   0.7066  -0.3978  -0.4445  -0.20    0.0
2379 380537.900   61.680996742   31.093326803    26.3803   2   6   0.8613   0.8539   1.3167   0.6828  -0.3680  -0.4266  -0.10    0.0
2379 380538.000   61.680995801   31.093325148    26.5557   2   6   0.8368   0.8306   1.2832   0.6621  -0.3413  -0.4105  -0.00    0.0
2379 380538.100   61.680994942   31.093323460    26.7169   2   6   0.8151   0.8098   1.2534   0.6437  -0.3170  -0.3959   0.10    0.0
2379 380538.200   61.680994030   31.093321338    26.8701   2   6   0.7956   0.7912   1.2266   0.6274  -0.2948  -0.3825   0.20    0.0
2379 380538.300   61.680993054   31.093318884    27.0364   2   6   0.7781   0.7743   1.2024   0.6127  -0.2742  -0.3703   0.30    0.0
2379 380538.400   61.680992076   31.093316237    27.2015   2   6   0.7622   0.7591   1.1804   0.5994  -0.2551  -0.3589   0.40    0.0
2379 380538.500   61.680991141   31.093313578    27.3429   2   6   0.7477   0.7451   1.1603   0.5874  -0.2371  -0.3484   0.50    0.0
2379 380538.600   61.680990219   31.093310708    27.5007   2   6   0.7344   0.7323   1.1418   0.5764  -0.2201  -0.3387  -0.41    0.0
2379 380538.700   61.680989351   31.093307969    27.6455   2   6   0.7221   0.7205   1.1247   0.5663  -0.2039  -0.3296  -0.31    0.0
2379 380538.800   61.680988539   31.093305317    27.7859   2   6   0.7108   0.7096   1.1089   0.5570  -0.1883  -0.3211  -0.21    0.0
2379 380538.900   61.680987824   31.093302885    27.9065   2   6   0.7003   0.6995   1.0943   0.5484  -0.1732  -0.3132  -0.11    0.0
2379 380539.000   61.680987171   31.093300828    27.9984   2   6   0.6906   0.6901   1.0806   0.5405  -0.1585  -0.3057  -0.01    0.0
2379 380539.100   61.680986537   31.093298678    28.0914   2   6   0.6814   0.6813   1.0678   0.5331  -0.1439  -0.2987   0.09    0.0
2379 380539.200   61.680985995   31.093296884    28.1818   2   6   0.6729   0.6730   1.0558   0.5261  -0.1293  -0.2920   0.19    0.0
2379 380539.300   61.680985373   31.093294856    28.2726   2   6   0.6649   0.6653   1.0445   0.5197  -0.1145  -0.2858   0.29    0.0
2379 380539.400   61.680984788   31.093292736    28.3511   2   6   0.6574   0.6580   1.0339   0.5136  -0.0991  -0.2799   0.39    0.0
2379 380539.500   61.680984272   31.093290846    28.4269   2   6   0.6503   0.6511   1.0238   0.5079  -0.0826  -0.2743   0.49    0.0
2379 380539.600   61.680983775   31.093289095    28.5178   2   6   0.6436   0.6447   1.0144   0.5025  -0.0638  -0.2689  -0.40    0.0
2379 380539.700   61.680983276   31.093287307    28.5877   2   6   0.6373   0.6385   1.0054   0.4974  -0.0395  -0.2639  -0.30    0.0
2379 380539.800   61.680982871   31.093285922    28.6450   2   6   0.6313   0.6327   0.9968   0.4926   0.0273  -0.2591  -0.20    0.0
2379 380539.900   61.680982533   31.093284744    28.7037   2   5   0.6256   0.6274   0.9887   0.4881   0.0534  -0.2546  -0.10    0.0
2379 380540.000   61.680982160   31.093283458    28.7524   2   5   0.6203   0.6223   0.9810   0.4840   0.0693  -0.2502  -0.00    0.0
2379 380540.100   61.680981686   31.093281883    28.8077   2   5   0.6152   0.6175   0.9736   0.4800   0.0814  -0.2461   0.10    0.0
2379 380540.200   61.680981291   31.093280462    28.8574   2   5   0.6103   0.6128   0.9665   0.4761   0.0912  -0.2421   0.20    0.0
2379 380540.300   61.680980875   31.093279089    28.8996   2   5   0.6056   0.6083   0.9598   0.4724   0.0994  -0.2383   0.30    0.0
2379 380540.400   61.680980598   31.093278178    28.9256   2   5   0.6011   0.6040   0.9534   0.4689   0.1065  -0.2346   0.40    0.0
2379 380540.500   61.680980333   31.093277343    28.9585   2   5   0.5969   0.5998   0.9472   0.4655   0.1127  -0.2311   0.50    0.0
2379 380540.600   61.680980130   31.093276535    28.9772   2   5   0.5928   0.5959   0.9412   0.4623   0.1183  -0.2278  -0.40    0.0
2379 380540.700   61.680979821   31.093275603    29.0094   2   5   0.5888   0.5921   0.9355   0.4592   0.1232  -0.2246  -0.30    0.0
2379 380540.800   61.680979440   31.093274381    29.0434   2   5   0.5851   0.5884   0.9301   0.4562   0.1275  -0.2215  -0.20    0.0
2379 380540.900   61.680979051   31.093273229    29.0697   2   5   0.5814   0.5849   0.9248   0.4533   0.1315  -0.2186  -0.10    0.0
2379 380541.000   61.680978671   31.093272004    29.0991   2   5   0.5779   0.5816   0.9197   0.4506   0.1350  -0.2158  -0.00    0.0
2379 380541.100   61.680978343   31.093270917    29.1230   2   5   0.5746   0.5783   0.9148   0.4479   0.1383  -0.2131   0.10    0.0
2379 380541.200   61.680978033   31.093269936    29.1448   2   5   0.5713   0.5752   0.9101   0.4454   0.1412  -0.2105   0.20    0.0
2379 380541.300   61.680977785   31.093269270    29.1556   2   5   0.5682   0.5722   0.9055   0.4429   0.1439  -0.2080   0.30    0.0
2379 380541.400   61.680977492   31.093268283    29.1738   2   5   0.5652   0.5693   0.9011   0.4406   0.1464  -0.2057   0.40    0.0
2379 380541.500   61.680977260   31.093267476    29.1837   2   5   0.5622   0.5664   0.8968   0.4383   0.1487  -0.2034   0.50    0.0
2379 380541.600   61.680977004   31.093266578    29.2008   2   5   0.5594   0.5637   0.8926   0.4361   0.1509  -0.2012  -0.41    0.0
2379 380541.700   61.680976730   31.093265828    29.2159   2   5   0.5567   0.5611   0.8886   0.4340   0.1529  -0.1990  -0.31    0.0
2379 380541.800   61.680976512   31.093265010    29.2230   2   5   0.5540   0.5586   0.8847   0.4319   0.1547  -0.1970  -0.21    0.0
2379 380541.900   61.680976228   31.093264153    29.2392   2   5   0.5515   0.5561   0.8810   0.4299   0.1563  -0.1951  -0.11    0.0
2379 380542.000   61.680975930   31.093263313    29.2538   2   5   0.5490   0.5537   0.8773   0.4279   0.1579  -0.1932  -0.01    0.0
2379 380542.100   61.680975712   31.093262488    29.2603   2   5   0.5466   0.5514   0.8737   0.4260   0.1593  -0.1914   0.09    0.0
2379 380542.200   61.680975399   31.093261320    29.2727   2   5   0.5442   0.5491   0.8703   0.4242   0.1606  -0.1897   0.19    0.0
2379 380542.300   61.680975139   31.093260585    29.2785   2   5   0.5420   0.5469   0.8669   0.4224   0.1619  -0.1881   0.29    0.0
2379 380542.400   61.680974849   31.093259649    29.2808   2   5   0.5398   0.5448   0.8636   0.4207   0.1630  -0.1865   0.39    0.0
2379 380542.500   61.680974593   31.093258754    29.2908   2   5   0.5376   0.5427   0.8605   0.4190   0.1641  -0.1849   0.49    0.0
2379 380542.600   61.680974283   31.093257605    29.3069   2   5   0.5356   0.5408   0.8574   0.4174   0.1651  -0.1835  -0.40    0.0
2379 380542.700   61.680973889   31.093256286    29.3296   2   5   0.5335   0.5388   0.8543   0.4159   0.1660  -0.1820  -0.30    0.0
2379 380542.800   61.680973534   31.093255026    29.3494   2   5   0.5316   0.5369   0.8514   0.4143   0.1669  -0.1807  -0.20    0.0
2379 380542.900   61.680973074   31.093253433    29.3781   2   5   0.5296   0.5351   0.8485   0.4128   0.1677  -0.1794  -0.10    0.0
2379 380543.000   61.680972576   31.093251471    29.4071   2   5   0.5277   0.5332   0.8457   0.4113   0.1684  -0.1782  -0.00    0.0
2379 380543.100   61.680972088   31.093249700    29.4328   2   5   0.5259   0.5315   0.8430   0.4099   0.1691  -0.1770   0.10    0.0
2379 380543.200   61.680971679   31.093248111    29.4539   2   5   0.5241   0.5298   0.8403   0.4085   0.1697  -0.1758   0.20    0.0
2379 380543.300   61.680971170   31.093246314    29.4799   2   5   0.5224   0.5281   0.8377   0.4072   0.1703  -0.1747   0.30    0.0
2379 380543.400   61.680970864   31.093245008    29.5001   2   5   0.5207   0.5265   0.8351   0.4058   0.1708  -0.1736   0.40    0.0
2379 380543.500   61.680970478   31.093243521    29.5276   2   5   0.5190   0.5249   0.8326   0.4045   0.1713  -0.1726   0.50    0.0
2379 380543.600   61.680969988   31.093241843    29.5648   2   5   0.5174   0.5234   0.8302   0.4033   0.1718  -0.1716  -0.41    0.0
2379 380543.700   61.680969543   31.093240160    29.5920   2   5   0.5159   0.5218   0.8278   0.4021   0.1722  -0.1707  -0.31    0.0
2379 380543.800   61.680969028   31.093238213    29.6236   2   5   0.5143   0.5204   0.8255   0.4009   0.1726  -0.1698  -0.20    0.0
2379 380543.900   61.680968559   31.093236274    29.6510   2   5   0.5128   0.5189   0.8232   0.3997   0.1729  -0.1689  -0.10    0.0
2379 380544.000   61.680968149   31.093234777    29.6787   2   5   0.5113   0.5175   0.8209   0.3985   0.1733  -0.1681  -0.00    0.0
2379 380544.100   61.680967677   31.093233032    29.7066   2   5   0.5099   0.5161   0.8187   0.3974   0.1735  -0.1673   0.09    0.0
2379 380544.200   61.680967330   31.093231610    29.7414   2   5   0.5085   0.5148   0.8166   0.3963   0.1738  -0.1666   0.19    0.0
2379 380544.300   61.680966896   31.093229891    29.7688   2   5   0.5071   0.5134   0.8145   0.3952   0.1740  -0.1659   0.29    0.0
2379 380544.400   61.680966402   31.093228150    29.7956   2   5   0.5057   0.5121   0.8124   0.3942   0.1742  -0.1652   0.40    0.0
2379 380544.500   61.680965932   31.093226460    29.8170   2   5   0.5044   0.5109   0.8104   0.3931   0.1744  -0.1645   0.50    0.0
2379 380544.600   61.680965552   31.093224886    29.8322   2   5   0.5031   0.5096   0.8084   0.3921   0.1746  -0.1639  -0.41    0.0
2379 380544.700   61.680965161   31.093223356    29.8459   2   5   0.5018   0.5084   0.8065   0.3911   0.1748  -0.1633  -0.31    0.0
2379 380544.800   61.680964754   31.093221723    29.8599   2   5   0.5006   0.5072   0.8045   0.3902   0.1749  -0.1627  -0.21    0.0
2379 380544.900   61.680964459   31.093220424    29.8685   2   5   0.4994   0.5061   0.8027   0.3892   0.1750  -0.1622  -0.11    0.0
2379 380545.000   61.680964173   31.093219338    29.8809   2   5   0.4982   0.5049   0.8008   0.3883   0.1750  -0.1617  -0.01    0.0
2379 380545.100   61.680963779   31.093217681    29.8981   2   5   0.4970   0.5038   0.7990   0.3873   0.1751  -0.1612   0.09    0.0
2379 380545.200   61.680963438   31.093216215    29.9162   2   5   0.4958   0.5027   0.7972   0.3864   0.1751  -0.1607   0.19    0.0
2379 380545.300   61.680963070   31.093214730    29.9312   2   5   0.4947   0.5016   0.7955   0.3855   0.1752  -0.1603   0.29    0.0
2379 380545.400   61.680962445   31.093212091    29.9513   2   6   0.4930   0.4979   0.7937   0.3831   0.1765  -0.1592   0.39    0.0
2379 380545.500   61.680962094   31.093210633    29.9755   2   6   0.4919   0.4968   0.7920   0.3822   0.1765  -0.1588   0.49    0.0
2379 380545.600   61.680961668   31.093208722    29.9901   2   7   0.4908   0.4944   0.7894   0.3816   0.1728  -0.1579  -0.40    0.0
2379 380545.700   61.680961253   31.093206973    30.0083   2   7   0.4898   0.4926   0.7869   0.3809   0.1698  -0.1571  -0.30    0.0
2379 380545.800   61.680960786   31.093205072    30.0300   2   7   0.4887   0.4909   0.7844   0.3802   0.1668  -0.1563  -0.20    0.0
2379 380545.900   61.680960346   31.093203267    30.0547   2   7   0.4877   0.4892   0.7820   0.3795   0.1639  -0.1556  -0.10    0.0
2379 380546.000   61.680959957   31.093201433    30.0730   2   7   0.4866   0.4875   0.7797   0.3788   0.1611  -0.1549  -0.00    0.0
2379 380546.100   61.680959580   31.093199733    30.1094   2   7   0.4834   0.4832   0.7745   0.3751   0.1469  -0.1634   0.10    0.0
2379 380546.200   61.680959253   31.093198085    30.1404   2   7   0.4806   0.4796   0.7700   0.3721   0.1349  -0.1694   0.20    0.0
2379 380546.300   61.680958870   31.093196382    30.1831   2   7   0.4780   0.4761   0.7658   0.3693   0.1226  -0.1747   0.30    0.0
2379 380546.400   61.680958565   31.093194774    30.2344   2   6   0.4755   0.4729   0.7619   0.3667   0.1101  -0.1795   0.40    0.0
2379 380546.500   61.680958219   31.093192981    30.2769   2   6   0.4732   0.4699   0.7581   0.3642   0.0970  -0.1838   0.50    0.0
2379 380546.600   61.680958043   31.093190404    30.2471   2   6   0.4707   0.4667   0.7539   0.3619   0.0810  -0.1868  -0.41    0.0
2379 380546.700   61.680957819   31.093187747    30.2305   2   6   0.4684   0.4634   0.7501   0.3598   0.0619  -0.1898  -0.31    0.0
2379 380546.800   61.680957416   31.093185213    30.2516   2   6   0.4663   0.4606   0.7466   0.3577   0.0382  -0.1928  -0.21    0.0
2379 380546.900   61.680957009   31.093182753    30.2758   2   6   0.4643   0.4580   0.7433   0.3557  -0.0269  -0.1957  -0.11    0.0
2379 380547.000   61.680956596   31.093180343    30.3095   2   6   0.4624   0.4555   0.7401   0.3538  -0.0525  -0.1982  -0.01    0.0
2379 380547.100   61.680956177   31.093177994    30.3480   2   6   0.4605   0.4531   0.7371   0.3520  -0.0681  -0.2006   0.09    0.0
2379 380547.200   61.680955822   31.093175950    30.3919   2   6   0.4587   0.4509   0.7342   0.3503  -0.0799  -0.2028   0.19    0.0
2379 380547.300   61.680955428   31.093173682    30.4431   2   6   0.4570   0.4487   0.7315   0.3486  -0.0895  -0.2048   0.29    0.0
2379 380547.400   61.680955052   31.093171648    30.4969   2   6   0.4553   0.4467   0.7288   0.3470  -0.0977  -0.2067   0.39    0.0
2379 380547.500   61.680954678   31.093169689    30.5485   2   6   0.4537   0.4447   0.7263   0.3455  -0.1047  -0.2085   0.49    0.0
2379 380547.600   61.680954274   31.093167616    30.6111   2   6   0.4521   0.4428   0.7238   0.3440  -0.1109  -0.2101  -0.41    0.0
2379 380547.700   61.680953848   31.093165490    30.6712   2   6   0.4506   0.4410   0.7214   0.3426  -0.1164  -0.2116  -0.31    0.0
2379 380547.800   61.680953491   31.093163509    30.7314   2   6   0.4491   0.4393   0.7191   0.3412  -0.1214  -0.2131  -0.21    0.0
2379 380547.900   61.680953054   31.093161394    30.8040   2   6   0.4477   0.4376   0.7169   0.3399  -0.1259  -0.2144  -0.11    0.0
2379 380548.000   61.680952645   31.093159401    30.8750   2   6   0.4463   0.4360   0.7148   0.3386  -0.1301  -0.2157  -0.01    0.0
2379 380548.100   61.680952209   31.093157251    30.9520   2   6   0.4450   0.4345   0.7127   0.3374  -0.1338  -0.2168   0.09    0.0
2379 380548.200   61.680951759   31.093155186    31.0224   2   6   0.4437   0.4330   0.7107   0.3362  -0.1373  -0.2179   0.19    0.0
2379 380548.300   61.680951302   31.093153067    31.0970   2   6   0.4424   0.4315   0.7088   0.3350  -0.1405  -0.2190   0.29    0.0
2379 380548.400   61.680950884   31.093150888    31.1656   2   6   0.4412   0.4301   0.7069   0.3339  -0.1435  -0.2200   0.39    0.0
2379 380548.500   61.680950388   31.093148616    31.2403   2   6   0.4400   0.4288   0.7050   0.3328  -0.1463  -0.2209   0.49    0.0
2379 380548.600   61.680949829   31.093146237    31.3208   2   6   0.4388   0.4275   0.7032   0.3317  -0.1489  -0.2217  -0.40    0.0
2379 380548.700   61.680949353   31.093144095    31.4028   2   6   0.4377   0.4262   0.7015   0.3307  -0.1513  -0.2226  -0.30    0.0
2379 380548.800   61.680948847   31.093141880    31.4821   2   6   0.4366   0.4249   0.6997   0.3297  -0.1536  -0.2233  -0.20    0.0
2379 380548.900   61.680948392   31.093139638    31.5625   2   6   0.4355   0.4237   0.6981   0.3288  -0.1557  -0.2241  -0.10    0.0
2379 380549.000   61.680947922   31.093137562    31.6362   2   6   0.4344   0.4226   0.6965   0.3278  -0.1577  -0.2248  -0.00    0.0
2379 380549.100   61.680947436   31.093135501    31.7222   2   6   0.4334   0.4215   0.6949   0.3269  -0.1596  -0.2254   0.10    0.0
2379 380549.200   61.680946924   31.093133290    31.8108   2   6   0.4324   0.4204   0.6933   0.3260  -0.1614  -0.2261   0.20    0.0
2379 380549.300   61.680946495   31.093131292    31.8882   2   6   0.4314   0.4193   0.6918   0.3251  -0.1631  -0.2267   0.30    0.0
2379 380549.400   61.680946035   31.093129314    31.9675   2   6   0.4304   0.4182   0.6903   0.3243  -0.1647  -0.2272   0.40    0.0
2379 380549.500   61.680945593   31.093127473    32.0496   2   6   0.4295   0.4172   0.6888   0.3235  -0.1663  -0.2278   0.50    0.0
2379 380549.600   61.680945139   31.093125449    32.1220   2   6   0.4286   0.4162   0.6874   0.3227  -0.1677  -0.2283  -0.41    0.0
2379 380549.700   61.680944725   31.093123535    32.1974   2   6   0.4277   0.4153   0.6860   0.3219  -0.1691  -0.2288  -0.31    0.0
2379 380549.800   61.680944283   31.093121604    32.2743   2   6   0.4268   0.4143   0.6847   0.3211  -0.1704  -0.2292  -0.21    0.0
2379 380549.900   61.680943900   31.093119880    32.3491   2   6   0.4259   0.4134   0.6833   0.3204  -0.1717  -0.2297  -0.11    0.0
2379 380550.000   61.680943482   31.093118130    32.4280   2   6   0.4251   0.4125   0.6820   0.3197  -0.1729  -0.2301  -0.01    0.0
2379 380550.100   61.680943078   31.093116368    32.5071   2   6   0.4242   0.4117   0.6807   0.3190  -0.1741  -0.2305   0.09    0.0
2379 380550.200   61.680942669   31.093114470    32.5948   2   6   0.4234   0.4108   0.6794   0.3183  -0.1752  -0.2309   0.19    0.0
2379 380550.300   61.680942204   31.093112493    32.6703   2   6   0.4226   0.4100   0.6782   0.3176  -0.1762  -0.2313   0.29    0.0
2379 380550.400   61.680941824   31.093110819    32.7455   2   6   0.4218   0.4091   0.6769   0.3169  -0.1773  -0.2316   0.39    0.0
2379 380550.500   61.680941437   31.093109158    32.8213   2   6   0.4211   0.4083   0.6757   0.3163  -0.1782  -0.2319   0.49    0.0
2379 380550.600   61.680940926   31.093107174    32.8918   2   6   0.4203   0.4076   0.6745   0.3157  -0.1792  -0.2323  -0.40    0.0
2379 380550.700   61.680940550   31.093105422    32.9548   2   6   0.4196   0.4068   0.6734   0.3150  -0.1801  -0.2326  -0.30    0.0
2379 380550.800   61.680940142   31.093103811    33.0199   2   6   0.4189   0.4061   0.6722   0.3144  -0.1810  -0.2329  -0.20    0.0
2379 380550.900   61.680939832   31.093102377    33.0923   2   6   0.4181   0.4053   0.6711   0.3138  -0.1818  -0.2332  -0.10    0.0
2379 380551.000   61.680939489   31.093100898    33.1431   2   6   0.4174   0.4046   0.6700   0.3132  -0.1826  -0.2334  -0.00    0.0
2379 380551.100   61.680939084   31.093099365    33.2113   2   6   0.4167   0.4039   0.6689   0.3127  -0.1834  -0.2337   0.10    0.0
2379 380551.200   61.680938780   31.093097912    33.2746   2   6   0.4161   0.4032   0.6678   0.3121  -0.1841  -0.2339   0.20    0.0
2379 380551.300   61.680938498   31.093096625    33.3332   2   6   0.4154   0.4025   0.6667   0.3116  -0.1849  -0.2342   0.30    0.0
2379 380551.400   61.680938133   31.093095231    33.3909   2   6   0.4147   0.4019   0.6657   0.3110  -0.1856  -0.2344   0.40    0.0
2379 380551.500   61.680937853   31.093093903    33.4526   2   6   0.4141   0.4012   0.6646   0.3105  -0.1863  -0.2346   0.50    0.0
2379 380551.600   61.680937520   31.093092557    33.5172   2   6   0.4135   0.4006   0.6636   0.3100  -0.1869  -0.2348  -0.41    0.0
2379 380551.700   61.680937214   31.093091335    33.5762   2   6   0.4128   0.3999   0.6626   0.3095  -0.1875  -0.2351  -0.31    0.0
2379 380551.800   61.680936936   31.093090219    33.6397   2   6   0.4122   0.3993   0.6616   0.3090  -0.1882  -0.2353  -0.20    0.0
2379 380551.900   61.680936678   31.093089085    33.6961   2   6   0.4116   0.3987   0.6606   0.3085  -0.1888  -0.2355  -0.10    0.0
2379 380552.000   61.680936369   31.093087904    33.7580   2   6   0.4110   0.3981   0.6596   0.3080  -0.1894  -0.2356  -0.00    0.0
2379 380552.100   61.680936106   31.093086950    33.8051   2   6   0.4104   0.3975   0.6587   0.3075  -0.1899  -0.2358   0.09    0.0
2379 380552.200   61.680935783   31.093085630    33.8506   2   6   0.4098   0.3970   0.6577   0.3071  -0.1905  -0.2360   0.19    0.0
2379 380552.300   61.680935514   31.093084556    33.9009   2   6   0.4093   0.3964   0.6568   0.3066  -0.1910  -0.2362   0.29    0.0
2379 380552.400   61.680935223   31.093083565    33.9472   2   6   0.4087   0.3958   0.6558   0.3062  -0.1915  -0.2363   0.40    0.0
2379 380552.500   61.680934978   31.093082560    33.9906   2   6   0.4081   0.3953   0.6549   0.3057  -0.1920  -0.2365   0.50    0.0
2379 380552.600   61.680934691   31.093081547    34.0327   2   6   0.4076   0.3948   0.6540   0.3053  -0.1925  -0.2366  -0.41    0.0
2379 380552.700   61.680934401   31.093080535    34.0894   2   6   0.4071   0.3942   0.6531   0.3049  -0.1930  -0.2368  -0.31    0.0
2379 380552.800   61.680934166   31.093079632    34.1384   2   6   0.4065   0.3937   0.6522   0.3045  -0.1935  -0.2369  -0.21    0.0
2379 380552.900   61.680933901   31.093078629    34.1955   2   6   0.4060   0.3932   0.6514   0.3040  -0.1939  -0.2370  -0.11    0.0
2379 380553.000   61.680933672   31.093077650    34.2335   2   6   0.4055   0.3927   0.6505   0.3036  -0.1944  -0.2372  -0.01    0.0
2379 380553.100   61.680933369   31.093076761    34.2671   2   6   0.4050   0.3922   0.6496   0.3032  -0.1948  -0.2373   0.09    0.0
2379 380553.200   61.680933208   31.093076048    34.3094   2   6   0.4044   0.3917   0.6488   0.3028  -0.1953  -0.2374   0.19    0.0
2379 380553.300   61.680932956   31.093075042    34.3489   2   6   0.4039   0.3912   0.6480   0.3024  -0.1957  -0.2375   0.29    0.0
2379 380553.400   61.680932710   31.093074211    34.3790   2   6   0.4035   0.3907   0.6471   0.3021  -0.1961  -0.2377   0.39    0.0
2379 380553.500   61.680932452   31.093073287    34.4128   2   6   0.4030   0.3903   0.6463   0.3017  -0.1965  -0.2378   0.49    0.0
2379 380553.600   61.680932260   31.093072423    34.4461   2   6   0.4025   0.3898   0.6455   0.3013  -0.1969  -0.2379  -0.40    0.0
2379 380553.700   61.680932046   31.093071685    34.4837   2   6   0.4020   0.3894   0.6447   0.3010  -0.1973  -0.2380  -0.30    0.0
2379 380553.800   61.680931773   31.093070884    34.5160   2   6   0.4015   0.3889   0.6439   0.3006  -0.1976  -0.2381  -0.20    0.0
2379 380553.900   61.680931620   31.093070239    34.5532   2   6   0.4011   0.3885   0.6431   0.3003  -0.1980  -0.2382  -0.10    0.0
2379 380554.000   61.680931364   31.093069319    34.6081   2   6   0.4006   0.3880   0.6423   0.2999  -0.1984  -0.2383  -0.00    0.0
2379 380554.100   61.680931146   31.093068595    34.6495   2   6   0.4002   0.3876   0.6415   0.2996  -0.1987  -0.2384   0.10    0.0
2379 380554.200   61.680930920   31.093067893    34.6911   2   6   0.3997   0.3872   0.6408   0.2992  -0.1991  -0.2385   0.20    0.0
2379 380554.300   61.680930726   31.093067270    34.7135   2   6   0.3993   0.3868   0.6400   0.2989  -0.1994  -0.2386   0.30    0.0
2379 380554.400   61.680930503   31.093066505    34.7448   2   6   0.3988   0.3864   0.6392   0.2986  -0.1997  -0.2387   0.40    0.0
2379 380554.500   61.680930301   31.093065806    34.7715   2   6   0.3984   0.3860   0.6385   0.2982  -0.2000  -0.2388   0.50    0.0
2379 380554.600   61.680930146   31.093065307    34.7844   2   6   0.3980   0.3856   0.6377   0.2979  -0.2004  -0.2388  -0.41    0.0
2379 380554.700   61.680929893   31.093064628    34.8073   2   6   0.3976   0.3852   0.6370   0.2976  -0.2007  -0.2389  -0.31    0.0
2379 380554.800   61.680929769   31.093064146    34.8262   2   6   0.3971   0.3848   0.6363   0.2973  -0.2010  -0.2390  -0.21    0.0
2379 380554.900   61.680929633   31.093063596    34.8440   2   6   0.3967   0.3844   0.6356   0.2970  -0.2013  -0.2391  -0.11    0.0
2379 380555.000   61.680929350   31.093062840    34.8702   2   6   0.3963   0.3840   0.6348   0.2967  -0.2016  -0.2392  -0.01    0.0
2379 380555.100   61.680929123   31.093062300    34.8983   2   6   0.3959   0.3836   0.6341   0.2964  -0.2019  -0.2392   0.09    0.0
2379 380555.200   61.680929006   31.093061685    34.9242   2   6   0.3955   0.3833   0.6334   0.2961  -0.2022  -0.2393   0.19    0.0
2379 380555.300   61.680928779   31.093060949    34.9558   2   6   0.3951   0.3829   0.6327   0.2958  -0.2025  -0.2394   0.29    0.0
2379 380555.400   61.680928541   31.093060237    34.9959   2   6   0.3947   0.3825   0.6320   0.2955  -0.2027  -0.2395   0.39    0.0
2379 380555.500   61.680928322   31.093059653    35.0175   2   6   0.3943   0.3822   0.6313   0.2952  -0.2030  -0.2395   0.49    0.0
2379 380555.600   61.680928118   31.093059082    35.0528   2   6   0.3940   0.3818   0.6306   0.2950  -0.2033  -0.2396  -0.41    0.0
2379 380555.700   61.680928006   31.093058585    35.0786   2   6   0.3936   0.3815   0.6300   0.2947  -0.2036  -0.2397  -0.31    0.0
2379 380555.800   61.680927864   31.093058128    35.1047   2   6   0.3932   0.3811   0.6293   0.2944  -0.2038  -0.2397  -0.21    0.0
2379 380555.900   61.680927683   31.093057647    35.1273   2   6   0.3928   0.3808   0.6286   0.2941  -0.2041  -0.2398  -0.11    0.0
2379 380556.000   61.680927506   31.093057041    35.1599   2   6   0.3925   0.3805   0.6279   0.2939  -0.2043  -0.2399  -0.01    0.0
2379 380556.100   61.680927343   31.093056535    35.1921   2   6   0.3921   0.3801   0.6273   0.2936  -0.2046  -0.2399   0.09    0.0
2379 380556.200   61.680927167   31.093056066    35.2285   2   6   0.3917   0.3798   0.6266   0.2934  -0.2048  -0.2400   0.19    0.0
2379 380556.300   61.680927035   31.093055528    35.2634   2   6   0.3914   0.3795   0.6260   0.2931  -0.2051  -0.2400   0.29    0.0
2379 380556.400   61.680926848   31.093055086    35.2920   2   6   0.3910   0.3792   0.6254   0.2929  -0.2053  -0.2401   0.39    0.0
2379 380556.500   61.680926714   31.093054530    35.3252   2   6   0.3907   0.3789   0.6248   0.2926  -0.2055  -0.2402   0.49    0.0
2379 380556.600   61.680926534   31.093054029    35.3575   2   6   0.3903   0.3786   0.6241   0.2924  -0.2057  -0.2402  -0.40    0.0
2379 380556.700   61.680926366   31.093053522    35.3840   2   6   0.3900   0.3782   0.6235   0.2921  -0.2059  -0.2403  -0.30    0.0
2379 380556.800   61.680926230   31.093053137    35.4117   2   6   0.3896   0.3779   0.6230   0.2919  -0.2061  -0.2403  -0.20    0.0
2379 380556.900   61.680926104   31.093052817    35.4357   2   6   0.3893   0.3776   0.6224   0.2916  -0.2063  -0.2404  -0.10    0.0
2379 380557.000   61.680926010   31.093052551    35.4578   2   6   0.3889   0.3773   0.6218   0.2914  -0.2065  -0.2404  -0.00    0.0
2379 380557.100   61.680925932   31.093052208    35.4805   2   6   0.3886   0.3770   0.6212   0.2912  -0.2067  -0.2404   0.10    0.0
2379 380557.200   61.680925744   31.093051868    35.5033   2   6   0.3883   0.3768   0.6207   0.2909  -0.2069  -0.2405   0.20    0.0
2379 380557.300   61.680925612   31.093051587    35.5226   2   6   0.3880   0.3765   0.6201   0.2907  -0.2071  -0.2405   0.30    0.0
2379 380557.400   61.680925439   31.093051043    35.5541   2   6   0.3876   0.3762   0.6195   0.2905  -0.2073  -0.2406   0.40    0.0
2379 380557.500   61.680925259   31.093050647    35.5902   2   6   0.3873   0.3759   0.6190   0.2903  -0.2075  -0.2406   0.50    0.0
2379 380557.600   61.680925205   31.093050274    35.6250   2   6   0.3870   0.3756   0.6184   0.2901  -0.2077  -0.2406  -0.41    0.0
2379 380557.700   61.680925055   31.093049803    35.6525   2   6   0.3867   0.3754   0.6179   0.2899  -0.2079  -0.2407  -0.31    0.0
2379 380557.800   61.680924972   31.093049595    35.6769   2   6   0.3864   0.3751   0.6174   0.2896  -0.2081  -0.2407  -0.21    0.0
2379 380557.900   61.680924856   31.093049239    35.6992   2   6   0.3861   0.3748   0.6168   0.2894  -0.2082  -0.2408  -0.11    0.0
2379 380558.000   61.680924749   31.093048966    35.7205   2   6   0.3858   0.3745   0.6163   0.2892  -0.2084  -0.2408  -0.01    0.0
2379 380558.100   61.680924619   31.093048762    35.7314   2   6   0.3854   0.3743   0.6158   0.2890  -0.2086  -0.2408   0.09    0.0
2379 380558.200   61.680924572   31.093048673    35.7434   2   6   0.3851   0.3740   0.6153   0.2888  -0.2088  -0.2409   0.19    0.0
2379 380558.300   61.680924429   31.093048570    35.7663   2   6   0.3848   0.3738   0.6148   0.2886  -0.2089  -0.2409   0.29    0.0
2379 380558.400   61.680924274   31.093048212    35.7936   2   6   0.3845   0.3735   0.6142   0.2884  -0.2091  -0.2409   0.39    0.0
2379 380558.500   61.680924156   31.093047900    35.8148   2   6   0.3843   0.3733   0.6137   0.2882  -0.2093  -0.2410   0.49    0.0
2379 380558.600   61.680924055   31.093047696    35.8263   2   6   0.3840   0.3730   0.6132   0.2880  -0.2094  -0.2410  -0.40    0.0
2379 380558.700   61.680923974   31.093047615    35.8509   2   6   0.3837   0.3728   0.6127   0.2878  -0.2096  -0.2410  -0.30    0.0
2379 380558.800   61.680923881   31.093047567    35.8637   2   6   0.3834   0.3725   0.6122   0.2876  -0.2098  -0.2410  -0.20    0.0
2379 380558.900   61.680923751   31.093047282    35.9017   2   6   0.3831   0.3723   0.6117   0.2874  -0.2099  -0.2411  -0.10    0.0
2379 380559.000   61.680923565   31.093047004    35.9242   2   6   0.3828   0.3720   0.6113   0.2872  -0.2101  -0.2411  -0.00    0.0
2379 380559.100   61.680923481   31.093046836    35.9242   2   6   0.3825   0.3718   0.6108   0.2871  -0.2103  -0.2411   0.10    0.0
2379 380559.200   61.680923393   31.093046477    35.9533   2   6   0.3823   0.3715   0.6103   0.2869  -0.2104  -0.2411   0.20    0.0
2379 380559.300   61.680923358   31.093046272    35.9670   2   6   0.3819   0.3713   0.6097   0.2867  -0.2106  -0.2410   0.30    0.0
2379 380559.400   61.680923206   31.093045910    35.9831   2   6   0.3816   0.3709   0.6092   0.2866  -0.2109  -0.2409   0.40    0.0
2379 380559.500   61.680923090   31.093045508    36.0281   2   6   0.3813   0.3706   0.6087   0.2864  -0.2110  -0.2409   0.50    0.0
2379 380559.600   61.680922989   31.093045646    36.0370   2   6   0.3811   0.3704   0.6082   0.2862  -0.2112  -0.2409  -0.41    0.0
2379 380559.700   61.680922926   31.093045344    36.0676   2   6   0.3808   0.3702   0.6078   0.2861  -0.2113  -0.2409  -0.31    0.0
2379 380559.800   61.680922714   31.093044933    36.0952   2   6   0.3805   0.3699   0.6073   0.2859  -0.2115  -0.2410  -0.20    0.0
2379 380559.900   61.680922621   31.093044617    36.1169   2   6   0.3803   0.3697   0.6069   0.2857  -0.2116  -0.2410  -0.10    0.0
2379 380560.000   61.680922520   31.093044556    36.1417   2   6   0.3800   0.3695   0.6064   0.2855  -0.2118  -0.2410  -0.00    0.0
2379 380560.100   61.680922408   31.093044347    36.1694   2   6   0.3797   0.3693   0.6060   0.2854  -0.2119  -0.2410   0.09    0.0
2379 380560.200   61.680922335   31.093044218    36.2005   2   6   0.3795   0.3690   0.6055   0.2852  -0.2121  -0.2410   0.19    0.0
2379 380560.300   61.680922193   31.093043979    36.2338   2   6   0.3792   0.3688   0.6051   0.2850  -0.2122  -0.2410   0.29    0.0
2379 380560.400   61.680922132   31.093043911    36.2608   2   6   0.3790   0.3686   0.6046   0.2849  -0.2124  -0.2411   0.40    0.0
2379 380560.500   61.680922103   31.093043665    36.2721   2   6   0.3787   0.3684   0.6042   0.2847  -0.2125  -0.2411   0.50    0.0
2379 380560.600   61.680921575   31.093041591    36.3712   2   6   0.3780   0.3661   0.6029   0.2833  -0.2097  -0.2399  -0.41    0.0
2379 380560.700   61.680920971   31.093039240    36.4836   2   6   0.3774   0.3639   0.6016   0.2820  -0.2069  -0.2387  -0.31    0.0
2379 380560.800   61.680920451   31.093037201    36.5929   2   6   0.3767   0.3618   0.6004   0.2806  -0.2042  -0.2375  -0.21    0.0
2379 380560.900   61.680919981   31.093035315    36.6998   2   6   0.3761   0.3597   0.5991   0.2793  -0.2015  -0.2364  -0.11    0.0
2379 380561.000   61.680919488   31.093033464    36.8105   2   6   0.3754   0.3577   0.5979   0.2781  -0.1989  -0.2353  -0.01    0.0
2379 380561.100   61.680919048   31.093031714    36.9087   2   6   0.3748   0.3557   0.5967   0.2768  -0.1963  -0.2343   0.09    0.0
2379 380561.200   61.680918674   31.093030182    36.9918   2   6   0.3742   0.3537   0.5955   0.2756  -0.1937  -0.2332   0.19    0.0
2379 380561.300   61.680918241   31.093028344    37.0888   2   6   0.3736   0.3518   0.5944   0.2745  -0.1913  -0.2322   0.29    0.0
2379 380561.400   61.680917803   31.093026728    37.1776   2   6   0.3730   0.3499   0.5933   0.2733  -0.1888  -0.2312   0.39    0.0
2379 380561.500   61.680917372   31.093025109    37.2602   2   6   0.3725   0.3481   0.5922   0.2722  -0.1864  -0.2303   0.49    0.0
2379 380561.600   61.680916963   31.093023371    37.3475   2   6   0.3719   0.3463   0.5911   0.2711  -0.1840  -0.2293  -0.40    0.0
2379 380561.700   61.680916537   31.093021724    37.4300   2   6   0.3713   0.3445   0.5900   0.2700  -0.1817  -0.2284  -0.30    0.0
2379 380561.800   61.680916151   31.093020342    37.5095   2   6   0.3708   0.3428   0.5889   0.2689  -0.1794  -0.2275  -0.20    0.0
2379 380561.900   61.680915846   31.093019005    37.5872   2   6   0.3703   0.3411   0.5879   0.2679  -0.1772  -0.2266  -0.10    0.0
2379 380562.000   61.680915574   31.093017832    37.6577   2   6   0.3697   0.3395   0.5869   0.2669  -0.1749  -0.2258  -0.00    0.0
2379 380562.100   61.680915275   31.093016637    37.7275   2   6   0.3692   0.3378   0.5858   0.2659  -0.1728  -0.2249   0.10    0.0
2379 380562.200   61.680914939   31.093015452    37.7982   2   6   0.3687   0.3363   0.5848   0.2649  -0.1706  -0.2241   0.20    0.0
2379 380562.300   61.680914694   31.093014362    37.8704   2   6   0.3682   0.3347   0.5839   0.2639  -0.1685  -0.2233   0.30    0.0
2379 380562.400   61.680914383   31.093013137    37.9375   2   6   0.3677   0.3332   0.5829   0.2630  -0.1664  -0.2225   0.40    0.0
2379 380562.500   61.680914190   31.093012242    37.9964   2   6   0.3672   0.3317   0.5819   0.2621  -0.1643  -0.2217   0.50    0.0
2379 380562.600   61.680913927   31.093011251    38.0564   2   6   0.3668   0.3302   0.5810   0.2612  -0.1623  -0.2210  -0.41    0.0
2379 380562.700   61.680913772   31.093010410    38.1029   2   6   0.3663   0.3288   0.5801   0.2603  -0.1603  -0.2202  -0.31    0.0
2379 380562.800   61.680913563   31.093009580    38.1597   2   6   0.3658   0.3274   0.5791   0.2594  -0.1583  -0.2195  -0.20    0.0
2379 380562.900   61.680913319   31.093008828    38.2110   2   6   0.3654   0.3260   0.5782   0.2586  -0.1563  -0.2188  -0.10    0.0
2379 380563.000   61.680913141   31.093008107    38.2707   2   6   0.3649   0.3246   0.5773   0.2577  -0.1544  -0.2181  -0.00    0.0
2379 380563.100   61.680912954   31.093007428    38.3185   2   6   0.3645   0.3233   0.5765   0.2569  -0.1525  -0.2174   0.09    0.0
2379 380563.200   61.680912804   31.093006784    38.3629   2   6   0.3640   0.3219   0.5756   0.2561  -0.1506  -0.2167   0.19    0.0
2379 380563.300   61.680912684   31.093006285    38.4075   2   6   0.3636   0.3206   0.5747   0.2553  -0.1488  -0.2161   0.29    0.0
2379 380563.400   61.680912527   31.093005786    38.4503   2   6   0.3632   0.3194   0.5739   0.2545  -0.1469  -0.2154   0.40    0.0
2379 380563.500   61.680912447   31.093005446    38.4881   2   6   0.3627   0.3181   0.5730   0.2537  -0.1451  -0.2148   0.50    0.0
2379 380563.600   61.680912316   31.093005044    38.5252   2   6   0.3623   0.3169   0.5722   0.2530  -0.1433  -0.2142  -0.41    0.0
2379 380563.700   61.680912257   31.093004836    38.5537   2   6   0.3619   0.3157   0.5713   0.2523  -0.1415  -0.2136  -0.31    0.0
2379 380563.800   61.680912176   31.093004569    38.5919   2   6   0.3615   0.3145   0.5705   0.2515  -0.1398  -0.2130  -0.21    0.0
2379 380563.900   61.680912129   31.093004416    38.6244   2   6   0.3611   0.3133   0.5697   0.2508  -0.1381  -0.2124  -0.11    0.0
2379 380564.000   61.680912153   31.093004555    38.6761   2   6   0.3606   0.3120   0.5682   0.2500  -0.1373  -0.2123  -0.01    0.0
2379 380564.100   61.680912236   31.093004742    38.7234   2   6   0.3602   0.3107   0.5667   0.2491  -0.1366  -0.2122   0.09    0.0
2379 380564.200   61.680912296   31.093005021    38.7625   2   6   0.3597   0.3095   0.5652   0.2483  -0.1359  -0.2121   0.19    0.0
2379 380564.300   61.680912369   31.093005253    38.8120   2   6   0.3593   0.3082   0.5635   0.2475  -0.1356  -0.2121   0.29    0.0
2379 380564.400   61.680912532   31.093005849    38.8876   2   6   0.3588   0.3069   0.5614   0.2466  -0.1358  -0.2124   0.39    0.0
2379 380564.500   61.680912634   31.093006408    38.9419   2   6   0.3583   0.3056   0.5594   0.2457  -0.1359  -0.2127   0.49    0.0
2379 380564.600   61.680912745   31.093006708    38.9927   2   6   0.3578   0.3043   0.5575   0.2449  -0.1358  -0.2129  -0.40    0.0
2379 380564.700   61.680912928   31.093007310    39.0736   2   8   0.3573   0.3030   0.5552   0.2440  -0.1364  -0.2133  -0.30    0.0
2379 380564.800   61.680913041   31.093007839    39.1181   2   8   0.3569   0.3018   0.5535   0.2432  -0.1362  -0.2134  -0.20    0.0
2379 380564.900   61.680913117   31.093008325    39.1552   2   8   0.3564   0.3006   0.5518   0.2424  -0.1359  -0.2135  -0.10    0.0
2379 380565.000   61.680913217   31.093008940    39.1807   2   8   0.3560   0.2994   0.5502   0.2417  -0.1356  -0.2135  -0.00    0.0
2379 380565.100   61.680913428   31.093009627    39.2057   2   8   0.3556   0.2983   0.5487   0.2409  -0.1353  -0.2136   0.10    0.0
2379 380565.200   61.680913509   31.093010056    39.2338   2   8   0.3552   0.2972   0.5472   0.2402  -0.1349  -0.2136   0.20    0.0
2379 380565.300   61.680913627   31.093010611    39.2561   2   8   0.3548   0.2961   0.5458   0.2395  -0.1345  -0.2135   0.30    0.0
2379 380565.400   61.680913704   31.093010986    39.2809   2   8   0.3544   0.2951   0.5445   0.2388  -0.1340  -0.2135   0.40    0.0
2379 380565.500   61.680913788   31.093011482    39.3049   2   8   0.3540   0.2940   0.5431   0.2382  -0.1335  -0.2134   0.50    0.0
2379 380565.600   61.680913892   31.093011853    39.3273   2   8   0.3536   0.2930   0.5418   0.2375  -0.1330  -0.2133  -0.41    0.0
2379 380565.700   61.680913977   31.093012224    39.3467   2   8   0.3533   0.2920   0.5406   0.2369  -0.1325  -0.2133  -0.31    0.0
2379 380565.800   61.680914056   31.093012677    39.3621   2   8   0.3529   0.2911   0.5394   0.2362  -0.1319  -0.2132  -0.21    0.0
2379 380565.900   61.680914100   31.093013075    39.3966   2   8   0.3525   0.2901   0.5382   0.2356  -0.1313  -0.2130  -0.11    0.0
2379 380566.000   61.680914272   31.093013607    39.4145   2   8   0.3522   0.2892   0.5370   0.2350  -0.1307  -0.2129  -0.01    0.0
2379 380566.100   61.680914290   31.093013940    39.4349   2   8   0.3518   0.2882   0.5359   0.2344  -0.1301  -0.2128   0.09    0.0
2379 380566.200   61.680914314   31.093014215    39.4455   2   8   0.3515   0.2873   0.5348   0.2338  -0.1295  -0.2127   0.19    0.0
2379 380566.300   61.680914394   31.093014499    39.4516   2   8   0.3511   0.2864   0.5337   0.2333  -0.1289  -0.2125   0.29    0.0
2379 380566.400   61.680914450   31.093014704    39.4666   2   8   0.3508   0.2855   0.5327   0.2327  -0.1283  -0.2124   0.39    0.0
2379 380566.500   61.680914415   31.093014577    39.4867   2   8   0.3504   0.2847   0.5316   0.2321  -0.1276  -0.2122   0.49    0.0
2379 380566.600   61.680914338   31.093014345    39.5133   2   8   0.3501   0.2838   0.5306   0.2316  -0.1270  -0.2121  -0.40    0.0
2379 380566.700   61.680917400   31.093019055    39.2736   2   8   0.3472   0.2811   0.5286   0.2281  -0.1220  -0.2085  -0.30    0.0
2379 380566.800   61.680920232   31.093023420    39.0540   2   8   0.3444   0.2786   0.5266   0.2248  -0.1171  -0.2051  -0.20    0.0
2379 380566.900   61.680922775   31.093027396    38.8658   2   8   0.3417   0.2762   0.5247   0.2215  -0.1123  -0.2018  -0.10    0.0
2379 380567.000   61.680925307   31.093031152    38.6767   2   8   0.3391   0.2738   0.5228   0.2184  -0.1075  -0.1986  -0.00    0.0
2379 380567.100   61.680927821   31.093035102    38.4926   2   8   0.3366   0.2716   0.5210   0.2154  -0.1027  -0.1955   0.10    0.0
2379 380567.200   61.680930219   31.093038549    38.3159   2   8   0.3342   0.2694   0.5193   0.2125  -0.0980  -0.1925   0.20    0.0
2379 380567.300   61.680932674   31.093042203    38.1231   2   8   0.3319   0.2673   0.5176   0.2097  -0.0932  -0.1896   0.30    0.0
2379 380567.400   61.680934935   31.093045367    37.9509   2   8   0.3296   0.2653   0.5160   0.2070  -0.0885  -0.1867   0.40    0.0
2379 380567.500   61.680937174   31.093048614    37.7864   2   8   0.3275   0.2633   0.5144   0.2043  -0.0837  -0.1840   0.50    0.0
2379 380567.600   61.680939332   31.093051705    37.6268   2   8   0.3253   0.2615   0.5129   0.2018  -0.0788  -0.1813  -0.40    0.0
2379 380567.700   61.680941204   31.093054161    37.4923   2   8   0.3233   0.2596   0.5114   0.1993  -0.0738  -0.1787  -0.30    0.0
2379 380567.800   61.680942798   31.093056161    37.3776   2   8   0.3213   0.2579   0.5099   0.1969  -0.0687  -0.1762  -0.20    0.0
2379 380567.900   61.680944411   31.093058436    37.2460   2   8   0.3194   0.2562   0.5085   0.1946  -0.0635  -0.1738  -0.10    0.0
2379 380568.000   61.680945878   31.093060259    37.1341   2   8   0.3175   0.2545   0.5071   0.1923  -0.0580  -0.1714  -0.00    0.0
2379 380568.100   61.680947526   31.093062410    37.0121   2   8   0.3157   0.2529   0.5058   0.1901  -0.0522  -0.1690   0.10    0.0
2379 380568.200   61.680948961   31.093064214    36.9069   2   8   0.3139   0.2514   0.5045   0.1880  -0.0460  -0.1667   0.20    0.0
2379 380568.300   61.680950468   31.093066171    36.7960   2   8   0.3122   0.2498   0.5032   0.1859  -0.0391  -0.1645   0.30    0.0
2379 380568.400   61.680951954   31.093068079    36.6995   2   8   0.3105   0.2484   0.5020   0.1839  -0.0311  -0.1624   0.40    0.0
2379 380568.500   61.680953512   31.093070021    36.6018   2   8   0.3089   0.2470   0.5007   0.1819  -0.0205  -0.1602   0.50    0.0
2379 380568.600   61.680955096   31.093072112    36.4956   2   8   0.3073   0.2456   0.4995   0.1800   0.0101  -0.1582  -0.41    0.0
2379 380568.700   61.680956522   31.093073919    36.4017   2   8   0.3057   0.2442   0.4984   0.1781   0.0246  -0.1561  -0.31    0.0
2379 380568.800   61.680958043   31.093075740    36.3245   2   8   0.3042   0.2429   0.4972   0.1763   0.0330  -0.1542  -0.21    0.0
2379 380568.900   61.680959583   31.093077698    36.2402   2   8   0.3027   0.2417   0.4961   0.1745   0.0394  -0.1522  -0.11    0.0
2379 380569.000   61.680961064   31.093079560    36.1548   2   8   0.3013   0.2404   0.4950   0.1727   0.0448  -0.1503  -0.01    0.0
2379 380569.100   61.680962592   31.093081456    36.0765   2   8   0.2999   0.2392   0.4939   0.1710   0.0494  -0.1485   0.09    0.0
2379 380569.200   61.680964223   31.093083446    35.9809   2   8   0.2985   0.2380   0.4929   0.1694   0.0535  -0.1467   0.19    0.0
2379 380569.300   61.680965701   31.093085277    35.8961   2   8   0.2971   0.2369   0.4918   0.1677   0.0571  -0.1449   0.29    0.0
2379 380569.400   61.680967211   31.093087137    35.8040   2   8   0.2958   0.2358   0.4908   0.1662   0.0604  -0.1431   0.39    0.0
2379 380569.500   61.680968711   31.093088930    35.7230   2   8   0.2945   0.2347   0.4898   0.1646   0.0635  -0.1414   0.49    0.0
2379 380569.600   61.680970236   31.093090605    35.6432   2   8   0.2932   0.2336   0.4888   0.1631   0.0663  -0.1397  -0.40    0.0
2379 380569.700   61.680971775   31.093092398    35.5543   2   8   0.2920   0.2326   0.4879   0.1616   0.0689  -0.1381  -0.30    0.0
2379 380569.800   61.680973243   31.093094140    35.4594   2   8   0.2908   0.2316   0.4869   0.1602   0.0713  -0.1365  -0.20    0.0
2379 380569.900   61.680974632   31.093095697    35.3791   2   8   0.2896   0.2306   0.4860   0.1587   0.0736  -0.1349  -0.10    0.0
2379 380570.000   61.680975987   31.093097213    35.2926   2   8   0.2884   0.2296   0.4851   0.1574   0.0757  -0.1333  -0.00    0.0
2379 380570.100   61.680977356   31.093098483    35.2125   2   8   0.2873   0.2286   0.4842   0.1560   0.0777  -0.1318   0.10    0.0
2379 380570.200   61.680978638   31.093099801    35.1336   2   8   0.2862   0.2277   0.4833   0.1547   0.0796  -0.1303   0.20    0.0
2379 380570.300   61.680979997   31.093100953    35.0612   2   8   0.2851   0.2268   0.4824   0.1534   0.0814  -0.1288   0.30    0.0
2379 380570.400   61.680981358   31.093102364    34.9933   2   8   0.2840   0.2259   0.4815   0.1521   0.0831  -0.1274   0.40    0.0
2379 380570.500   61.680982685   31.093103686    34.9142   2   8   0.2829   0.2251   0.4807   0.1508   0.0848  -0.1259   0.50    0.0
2379 380570.600   61.680983952   31.093104688    34.8486   2   8   0.2819   0.2242   0.4799   0.1496   0.0863  -0.1245  -0.41    0.0
2379 380570.700   61.680985375   31.093106103    34.7718   2   8   0.2808   0.2234   0.4790   0.1484   0.0878  -0.1231  -0.31    0.0
2379 380570.800   61.680986611   31.093107141    34.7084   2   8   0.2798   0.2226   0.4782   0.1472   0.0892  -0.1218  -0.20    0.0
2379 380570.900   61.680987910   31.093108047    34.6380   2   8   0.2788   0.2218   0.4774   0.1460   0.0905  -0.1204  -0.10    0.0
2379 380571.000   61.680989315   31.093109145    34.5661   2   8   0.2779   0.2210   0.4766   0.1449   0.0918  -0.1191  -0.00    0.0
2379 380571.100   61.680990589   31.093110149    34.5096   2   8   0.2769   0.2202   0.4758   0.1438   0.0930  -0.1178   0.09    0.0
2379 380571.200   61.680991890   31.093111233    34.4565   2   8   0.2760   0.2195   0.4751   0.1427   0.0942  -0.1165   0.19    0.0
2379 380571.300   61.680993132   31.093112089    34.4062   2   8   0.2750   0.2187   0.4743   0.1416   0.0953  -0.1153   0.29    0.0
2379 380571.400   61.680994321   31.093112827    34.3570   2   8   0.2741   0.2180   0.4735   0.1405   0.0964  -0.1140   0.40    0.0
2379 380571.500   61.680995546   31.093113621    34.3038   2   8   0.2732   0.2173   0.4728   0.1395   0.0975  -0.1128   0.50    0.0
2379 380571.600   61.680996817   31.093114491    34.2380   2   8   0.2723   0.2166   0.4721   0.1385   0.0985  -0.1116  -0.41    0.0
2379 380571.700   61.680997881   31.093115003    34.1893   2   8   0.2715   0.2159   0.4713   0.1375   0.0995  -0.1104  -0.31    0.0
2379 380571.800   61.680999111   31.093115544    34.1446   2   8   0.2706   0.2152   0.4706   0.1365   0.1004  -0.1092  -0.21    0.0
2379 380571.900   61.681000306   31.093116207    34.0951   2   8   0.2698   0.2146   0.4699   0.1355   0.1013  -0.1081  -0.11    0.0
2379 380572.000   61.681001489   31.093116716    34.0515   2   8   0.2689   0.2139   0.4692   0.1346   0.1021  -0.1069  -0.01    0.0
2379 380572.100   61.681002563   31.093117217    34.0063   2   8   0.2681   0.2133   0.4685   0.1336   0.1030  -0.1058   0.09    0.0
2379 380572.200   61.681003735   31.093117692    33.9647   2   8   0.2673   0.2127   0.4678   0.1327   0.1038  -0.1047   0.19    0.0
2379 380572.300   61.681004908   31.093118307    33.9133   2   8   0.2665   0.2120   0.4671   0.1318   0.1046  -0.1036   0.29    0.0
2379 380572.400   61.681006044   31.093118798    33.8685   2   8   0.2657   0.2114   0.4665   0.1309   0.1053  -0.1025   0.39    0.0
2379 380572.500   61.681007216   31.093119424    33.8211   2   8   0.2649   0.2108   0.4658   0.1300   0.1060  -0.1014   0.49    0.0
2379 380572.600   61.681007164   31.093118156    33.8715   2   8   0.2649   0.2106   0.4653   0.1301   0.1059  -0.1017  -0.40    0.0
2379 380572.700   61.681007103   31.093116907    33.9327   2   8   0.2648   0.2104   0.4649   0.1302   0.1058  -0.1019  -0.30    0.0
2379 380572.800   61.681007158   31.093115930    33.9713   2   8   0.2647   0.2102   0.4644   0.1302   0.1057  -0.1022  -0.20    0.0
2379 380572.900   61.681007113   31.093114912    34.0179   2   8   0.2647   0.2100   0.4640   0.1302   0.1056  -0.1025  -0.10    0.0
2379 380573.000   61.681007051   31.093113601    34.0785   2   8   0.2646   0.2097   0.4636   0.1303   0.1055  -0.1027  -0.00    0.0
2379 380573.100   61.681007012   31.093112425    34.1325   2   8   0.2645   0.2095   0.4631   0.1303   0.1054  -0.1029   0.10    0.0
2379 380573.200   61.681006994   31.093111269    34.1857   2   8   0.2644   0.2093   0.4627   0.1304   0.1053  -0.1032   0.20    0.0
2379 380573.300   61.681006944   31.093110025    34.2424   2   8   0.2644   0.2091   0.4622   0.1304   0.1052  -0.1034   0.30    0.0
2379 380573.400   61.681006917   31.093108898    34.2972   2   8   0.2643   0.2089   0.4618   0.1305   0.1051  -0.1036   0.40    0.0
2379 380573.500   61.681006880   31.093107841    34.3459   2   8   0.2642   0.2087   0.4614   0.1305   0.1050  -0.1039   0.50    0.0
2379 380573.600   61.681006865   31.093106536    34.3974   2   8   0.2642   0.2085   0.4609   0.1306   0.1049  -0.1041  -0.41    0.0
2379 380573.700   61.681006869   31.093105330    34.4550   2   8   0.2641   0.2083   0.4605   0.1306   0.1048  -0.1043  -0.31    0.0
2379 380573.800   61.681006821   31.093104184    34.5051   2   8   0.2640   0.2081   0.4601   0.1306   0.1047  -0.1046  -0.21    0.0
2379 380573.900   61.681006740   31.093102833    34.5678   2   8   0.2639   0.2079   0.4597   0.1307   0.1046  -0.1048  -0.11    0.0
2379 380574.000   61.681006670   31.093101615    34.6155   2   8   0.2639   0.2077   0.4592   0.1307   0.1045  -0.1050  -0.01    0.0
2379 380574.100   61.681006568   31.093100285    34.6726   2   8   0.2638   0.2075   0.4588   0.1308   0.1044  -0.1052   0.09    0.0
2379 380574.200   61.681006537   31.093099118    34.7330   2   8   0.2637   0.2073   0.4584   0.1308   0.1043  -0.1054   0.19    0.0
2379 380574.300   61.681006452   31.093097860    34.7901   2   8   0.2637   0.2071   0.4580   0.1308   0.1042  -0.1056   0.29    0.0
2379 380574.400   61.681006401   31.093096697    34.8410   2   8   0.2636   0.2069   0.4576   0.1309   0.1041  -0.1058   0.39    0.0
2379 380574.500   61.681006338   31.093095495    34.8855   2   8   0.2635   0.2067   0.4571   0.1309   0.1040  -0.1060   0.49    0.0
2379 380574.600   61.681006305   31.093094346    34.9403   2   8   0.2635   0.2065   0.4567   0.1310   0.1040  -0.1062  -0.40    0.0
2379 380574.700   61.681006280   31.093093229    34.9921   2   8   0.2634   0.2063   0.4563   0.1310   0.1039  -0.1064  -0.30    0.0
2379 380574.800   61.681006247   31.093092191    35.0397   2   8   0.2633   0.2061   0.4559   0.1310   0.1038  -0.1066  -0.20    0.0
2379 380574.900   61.681006159   31.093090853    35.0990   2   8   0.2632   0.2059   0.4555   0.1311   0.1037  -0.1068  -0.10    0.0
2379 380575.000   61.681006122   31.093089580    35.1543   2   8   0.2632   0.2057   0.4551   0.1311   0.1036  -0.1070  -0.00    0.0
2379 380575.100   61.681006082   31.093088532    35.2141   2   8   0.2631   0.2055   0.4547   0.1311   0.1035  -0.1072   0.10    0.0
2379 380575.200   61.681006043   31.093087177    35.2712   2   8   0.2630   0.2053   0.4543   0.1312   0.1034  -0.1074   0.20    0.0
2379 380575.300   61.681005964   31.093085948    35.3304   2   8   0.2630   0.2051   0.4539   0.1312   0.1033  -0.1076   0.30    0.0
2379 380575.400   61.681005943   31.093084706    35.3827   2   8   0.2629   0.2050   0.4535   0.1312   0.1033  -0.1078   0.40    0.0
2379 380575.500   61.681005879   31.093083458    35.4350   2   8   0.2628   0.2048   0.4531   0.1313   0.1032  -0.1080   0.50    0.0
2379 380575.600   61.681005862   31.093082322    35.4773   2   8   0.2628   0.2046   0.4527   0.1313   0.1031  -0.1081  -0.40    0.0
2379 380575.700   61.681005795   31.093081102    35.5327   2   8   0.2627   0.2044   0.4523   0.1314   0.1030  -0.1083  -0.30    0.0
2379 380575.800   61.681005700   31.093079916    35.5843   2   8   0.2626   0.2042   0.4519   0.1314   0.1029  -0.1085  -0.20    0.0
2379 380575.900   61.681005714   31.093078727    35.6393   2   8   0.2626   0.2041   0.4515   0.1314   0.1028  -0.1087  -0.10    0.0
2379 380576.000   61.681005601   31.093077383    35.6995   2   8   0.2625   0.2039   0.4511   0.1315   0.1028  -0.1088  -0.00    0.0
2379 380576.100   61.681005520   31.093076055    35.7590   2   8   0.2624   0.2037   0.4507   0.1315   0.1027  -0.1090   0.10    0.0
2379 380576.200   61.681005468   31.093074697    35.8167   2   8   0.2624   0.2035   0.4503   0.1315   0.1026  -0.1092   0.20    0.0
2379 380576.300   61.681005434   31.093073261    35.8767   2   8   0.2623   0.2033   0.4499   0.1315   0.1025  -0.1093   0.30    0.0
2379 380576.400   61.681005395   31.093071947    35.9389   2   8   0.2622   0.2032   0.4495   0.1316   0.1024  -0.1095   0.40    0.0
2379 380576.500   61.681005325   31.093070545    35.9995   2   8   0.2622   0.2030   0.4491   0.1316   0.1023  -0.1097   0.50    0.0
2379 380576.600   61.681005304   31.093069172    36.0575   2   8   0.2621   0.2028   0.4487   0.1317   0.1023  -0.1098  -0.41    0.0
2379 380576.700   61.681005261   31.093067746    36.1172   2   8   0.2621   0.2027   0.4484   0.1317   0.1022  -0.1100  -0.31    0.0
2379 380576.800   61.681005206   31.093066242    36.1856   2   8   0.2620   0.2025   0.4480   0.1317   0.1021  -0.1102  -0.21    0.0
2379 380576.900   61.681005194   31.093064850    36.2436   2   8   0.2619   0.2023   0.4476   0.1317   0.1020  -0.1103  -0.11    0.0
2379 380577.000   61.681005103   31.093063400    36.3126   2   8   0.2619   0.2021   0.4472   0.1318   0.1019  -0.1105  -0.01    0.0
2379 380577.100   61.681005047   31.093062033    36.3705   2   8   0.2618   0.2020   0.4468   0.1318   0.1019  -0.1106   0.09    0.0
2379 380577.200   61.681004995   31.093060662    36.4268   2   8   0.2617   0.2018   0.4464   0.1318   0.1018  -0.1108   0.19    0.0
2379 380577.300   61.681004902   31.093059124    36.4938   2   8   0.2617   0.2016   0.4461   0.1319   0.1017  -0.1109   0.29    0.0
2379 380577.400   61.681004762   31.093057543    36.5695   2   8   0.2616   0.2015   0.4457   0.1319   0.1016  -0.1111   0.39    0.0
2379 380577.500   61.681004719   31.093056007    36.6315   2   8   0.2615   0.2013   0.4453   0.1319   0.1015  -0.1112   0.49    0.0
2379 380577.600   61.681004674   31.093056282    36.6171   2   8   0.2615   0.2013   0.4450   0.1320   0.1012  -0.1114  -0.40    0.0
2379 380577.700   61.681004553   31.093056256    36.6334   2   8   0.2614   0.2013   0.4446   0.1320   0.1009  -0.1115  -0.30    0.0
2379 380577.800   61.681004461   31.093056218    36.6430   2   8   0.2614   0.2013   0.4443   0.1320   0.1006  -0.1117  -0.20    0.0
2379 380577.900   61.681004312   31.093056143    36.6520   2   8   0.2613   0.2013   0.4440   0.1320   0.1003  -0.1118  -0.10    0.0
2379 380578.000   61.681004299   31.093056250    36.6474   2   8   0.2612   0.2013   0.4436   0.1321   0.1000  -0.1119  -0.00    0.0
2379 380578.100   61.681004277   31.093056350    36.6505   2   8   0.2612   0.2013   0.4433   0.1321   0.0997  -0.1121   0.10    0.0
2379 380578.200   61.681004153   31.093056386    36.6616   2   8   0.2611   0.2013   0.4430   0.1321   0.0994  -0.1122   0.20    0.0
2379 380578.300   61.681004057   31.093056444    36.6712   2   8   0.2610   0.2013   0.4426   0.1321   0.0991  -0.1124   0.30    0.0
2379 380578.400   61.681004020   31.093056507    36.6774   2   8   0.2610   0.2013   0.4423   0.1322   0.0988  -0.1125   0.40    0.0
2379 380578.500   61.681003951   31.093056512    36.6800   2   8   0.2609   0.2013   0.4420   0.1322   0.0985  -0.1126   0.50    0.0
2379 380578.600   61.681003886   31.093056502    36.6852   2   8   0.2609   0.2014   0.4417   0.1322   0.0982  -0.1128  -0.41    0.0
2379 380578.700   61.681003834   31.093056590    36.6798   2   8   0.2608   0.2014   0.4413   0.1323   0.0979  -0.1129  -0.31    0.0
2379 380578.800   61.681003798   31.093056822    36.6687   2   8   0.2607   0.2014   0.4410   0.1323   0.0976  -0.1130  -0.20    0.0
2379 380578.900   61.681003732   31.093056879    36.6738   2   8   0.2607   0.2014   0.4407   0.1323   0.0973  -0.1132  -0.10    0.0
2379 380579.000   61.681003632   31.093056932    36.6670   2   8   0.2606   0.2014   0.4403   0.1323   0.0970  -0.1133  -0.00    0.0
2379 380579.100   61.681003586   31.093057067    36.6639   2   8   0.2605   0.2014   0.4400   0.1324   0.0967  -0.1134   0.09    0.0
2379 380579.200   61.681003482   31.093057113    36.6658   2   8   0.2605   0.2014   0.4397   0.1324   0.0964  -0.1136   0.19    0.0
2379 380579.300   61.681003403   31.093057173    36.6696   2   8   0.2604   0.2014   0.4394   0.1324   0.0961  -0.1137   0.29    0.0
2379 380579.400   61.681003392   31.093057216    36.6755   2   8   0.2604   0.2014   0.4390   0.1324   0.0959  -0.1138   0.40    0.0
2379 380579.500   61.681003292   31.093057236    36.6724   2   8   0.2603   0.2014   0.4387   0.1325   0.0956  -0.1140   0.50    0.0
2379 380579.600   61.681003152   31.093057127    36.6912   2   8   0.2602   0.2014   0.4384   0.1325   0.0953  -0.1141  -0.41    0.0
2379 380579.700   61.681003037   31.093057097    36.7080   2   8   0.2602   0.2014   0.4381   0.1325   0.0950  -0.1142  -0.31    0.0
2379 380579.800   61.681003014   31.093057196    36.7141   2   8   0.2601   0.2014   0.4378   0.1325   0.0947  -0.1143  -0.21    1.0
2379 380579.900   61.681002957   31.093057333    36.7184   2   8   0.2601   0.2014   0.4375   0.1326   0.0944  -0.1145  -0.11    1.0
2379 380580.000   61.681002882   31.093057453    36.7231   2   8   0.2600   0.2014   0.4371   0.1326   0.0941  -0.1146  -0.01    1.0
2379 380580.100   61.681002831   31.093057533    36.7292   2   8   0.2599   0.2014   0.4368   0.1326   0.0938  -0.1147   0.09    1.0
2379 380580.200   61.681002720   31.093057463    36.7504   2   8   0.2599   0.2014   0.4365   0.1326   0.0936  -0.1148   0.19    1.0
2379 380580.300   61.681002737   31.093057685    36.7482   2   8   0.2598   0.2014   0.4362   0.1327   0.0933  -0.1150   0.29    1.0
2379 380580.400   61.681002636   31.093057628    36.7597   2   8   0.2598   0.2014   0.4358   0.1327   0.0930  -0.1151   0.39    1.0
