% program   : RTKPOST demo5 b34L
% inp file  : C:\Users\1\Desktop\MAG-Geoshark\ELEVATION-200-3B\250814_094158.obs
% inp file  : C:\Users\1\Desktop\GNSS-EXTBASES\sp3_clk\brdc\BRDC00IGS_R_20252260000_01D_MN.rnx\BRDC00IGS_R_20252260000_01D_MN.rnx
% inp file  : C:\Users\1\Desktop\GNSS-EXTBASES\sp3_clk\gfz\GFZ0MGXRAP_20252260000_01D_05M_ORB.SP3\GBM0MGXRAP_20252260000_01D_05M_ORB.SP3
% inp file  : C:\Users\1\Desktop\GNSS-EXTBASES\sp3_clk\gfz\GFZ0MGXRAP_20252260000_01D_30S_CLK.CLK\GBM0MGXRAP_20252260000_01D_30S_CLK.CLK
% obs start : 2025/08/14 09:42:16.8 GPST (week2379 380536.8s)
% obs end   : 2025/08/14 10:01:29.6 GPST (week2379 381689.6s)
% pos mode  : PPP Kinematic
% freqs     : L1+L2/E5b
% solution  : Forward
% elev mask : 10.0 deg
% dynamics  : on
% tidecorr  :
% ionos opt : Estimate TEC
% tropo opt : Saastamoinen
% ephemeris : Precise
% navi sys  : GPS GLONASS
% antenna1  :                       ( 0.0000  0.0000  0.0000)
%
% (lat/lon/height=WGS84/ellipsoidal,Q=1:fix,2:float,3:sbas,4:dgps,5:single,6:ppp,ns=# of satellites)
%  GPST          latitude(deg) longitude(deg)  height(m)   Q  ns   sdn(m)   sde(m)   sdu(m)  sdne(m)  sdeu(m)  sdun(m) age(s)  ratio
2379 380635.100   61.680953089   31.093319369    38.3131   6   4   2.8231   4.5436   5.9104   3.2745  -4.9321  -3.3764   0.00    0.0
2379 380850.600   61.681003038   31.092205078   182.6256   6   4   0.8658   0.9257   2.2453  -0.5152   1.2666  -0.3020   0.00    0.0
2379 380850.700   61.681002241   31.092213377   182.9965   6   4   0.8382   0.8594   2.1244  -0.4672   1.1673  -0.1181   0.00    0.0
2379 380850.800   61.681001794   31.092220574   183.2483   6   4   0.8060   0.7763   1.9759  -0.3952   1.0407   0.3128   0.00    0.0
2379 380850.900   61.681001460   31.092227533   183.4838   6   4   0.7799   0.7160   1.8653  -0.3371   0.9459   0.4165   0.00    0.0
2379 380851.000   61.681001115   31.092234949   183.7727   6   4   0.7593   0.6751   1.7850  -0.2942   0.8789   0.4695   0.00    0.0
2379 380851.100   61.681000814   31.092242307   184.0598   6   4   0.7424   0.6453   1.7202  -0.2614   0.8273   0.5019   0.00    0.0
2379 380851.200   61.681000724   31.092248907   184.2705   6   4   0.7281   0.6221   1.6628  -0.2354   0.7843   0.5238   0.00    0.0
2379 380851.300   61.681000888   31.092254193   184.3458   6   4   0.7156   0.6032   1.6098  -0.2149   0.7468   0.5387   0.00    0.0
2379 380851.400   61.681001260   31.092258559   184.3547   6   4   0.7047   0.5876   1.5605  -0.1995   0.7140   0.5480   0.00    0.0
2379 380851.500   61.681001604   31.092262859   184.4008   6   4   0.6949   0.5747   1.5152  -0.1888   0.6853   0.5527   0.00    0.0
2379 380851.600   61.681002036   31.092266576   184.4258   6   4   0.6860   0.5637   1.4741  -0.1818   0.6604   0.5538   0.00    0.0
2379 380851.700   61.681002591   31.092269618   184.4524   6   4   0.6777   0.5542   1.4372  -0.1777   0.6386   0.5523   0.00    0.0
2379 380851.800   61.681003099   31.092272582   184.5222   6   4   0.6699   0.5458   1.4040  -0.1756   0.6193   0.5491   0.00    0.0
2379 380851.900   61.681003746   31.092274542   184.5561   6   4   0.6624   0.5381   1.3740  -0.1747   0.6019   0.5449   0.00    0.0
2379 380852.000   61.681004408   31.092276090   184.6131   6   4   0.6553   0.5308   1.3467  -0.1746   0.5858   0.5402   0.00    0.0
2379 380852.100   61.681005044   31.092277267   184.6936   6   4   0.6484   0.5238   1.3218  -0.1747   0.5708   0.5354   0.00    0.0
2379 380852.200   61.681005654   31.092277658   184.7605   6   4   0.6419   0.5170   1.2990  -0.1748   0.5565   0.5307   0.00    0.0
2379 380852.300   61.681006496   31.092277763   184.8677   6   4   0.6422   0.5122   1.2800  -0.1634   0.5458   0.5324   0.00    0.0
2379 380852.400   61.681007431   31.092276771   184.9362   6   4   0.6416   0.5069   1.2625  -0.1545   0.5351   0.5335   0.00    0.0
2379 380852.500   61.681008327   31.092275343   185.0317   6   4   0.6396   0.5012   1.2464  -0.1486   0.5245   0.5337   0.00    0.0
2379 380852.600   61.681009397   31.092272822   185.1054   6   4   0.6365   0.4955   1.2315  -0.1447   0.5140   0.5331   0.00    0.0
2379 380852.700   61.681010489   31.092269770   185.1986   6   4   0.6325   0.4898   1.2178  -0.1418   0.5039   0.5319   0.00    0.0
2379 380852.800   61.681011691   31.092265775   185.2744   6   4   0.6282   0.4843   1.2051  -0.1392   0.4944   0.5304   0.00    0.0
2379 380852.900   61.681012926   31.092260954   185.3294   6   4   0.6237   0.4791   1.1934  -0.1364   0.4855   0.5287   0.00    0.0
2379 380853.000   61.681014233   31.092255489   185.3983   6   4   0.6193   0.4742   1.1825  -0.1333   0.4773   0.5269   0.00    0.0
2379 380930.100   61.683224543   31.080038524   179.9467   6   4   0.6022   0.8085   1.9664  -0.6359   1.2139  -0.9323   0.00    0.0
2379 381402.200   61.684541329   31.086723620   180.7450   6   4   0.9461   0.3266   1.9891   0.2374  -0.3492   1.2734   0.00    0.0
2379 381402.300   61.684533409   31.086735583   180.1808   6   4   0.9200   0.3226   1.9346   0.2321  -0.3442   1.2356   0.00    0.0
2379 381402.400   61.684525717   31.086747762   179.6495   6   4   0.8810   0.3164   1.8736   0.2125  -0.3516   1.1867   0.00    0.0
2379 381402.500   61.684518418   31.086760166   179.1623   6   4   0.8378   0.3093   1.8134   0.1852  -0.3630   1.1354   0.00    0.0
2379 381402.600   61.684511343   31.086772779   178.7092   6   4   0.7966   0.3025   1.7579   0.1560  -0.3728   1.0873   0.00    0.0
2379 381402.700   61.684507171   31.086785532   178.9138   6   4   0.7628   0.2966   1.7140   0.1279  -0.3795   1.0486   0.00    0.0
2379 381402.800   61.684502764   31.086798218   179.0983   6   4   0.7323   0.2915   1.6724   0.1013  -0.3837   1.0127   0.00    0.0
2379 381402.900   61.684498162   31.086810876   179.2448   6   4   0.7052   0.2871   1.6332   0.0763  -0.3857   0.9797   0.00    0.0
2379 381403.000   61.684493486   31.086823520   179.3786   6   4   0.6813   0.2835   1.5960   0.0522  -0.3860   0.9491   0.00    0.0
2379 381403.100   61.684488702   31.086836200   179.5019   6   4   0.6604   0.2803   1.5606   0.0263  -0.3849   0.9210   0.00    0.0
2379 381403.200   61.684482319   31.086848855   179.2340   6   4   0.6405   0.2775   1.5233  -0.0231  -0.3825   0.8925   0.00    0.0
2379 381403.300   61.684476338   31.086861587   179.0657   6   4   0.6235   0.2749   1.4886  -0.0342  -0.3793   0.8670   0.00    0.0
2379 381403.400   61.684470781   31.086874247   179.0198   6   4   0.6089   0.2726   1.4564  -0.0378  -0.3757   0.8441   0.00    0.0
2379 381403.500   61.684465595   31.086886844   179.0795   6   4   0.5965   0.2704   1.4266  -0.0382  -0.3718   0.8236   0.00    0.0
2379 381403.600   61.684460745   31.086899430   179.2424   6   4   0.5857   0.2684   1.3991  -0.0371  -0.3678   0.8051   0.00    0.0
2379 381403.700   61.684456210   31.086911917   179.4930   6   4   0.5761   0.2665   1.3737  -0.0353  -0.3640   0.7884   0.00    0.0
2379 381403.800   61.684451703   31.086924379   179.7606   6   4   0.5689   0.2646   1.3523  -0.0332  -0.3603   0.7751   0.00    0.0
2379 381403.900   61.684447034   31.086936797   180.0015   6   4   0.5623   0.2629   1.3326  -0.0313  -0.3569   0.7628   0.00    0.0
2379 381404.000   61.684442032   31.086949150   180.1712   6   4   0.5562   0.2613   1.3145  -0.0297  -0.3538   0.7514   0.00    0.0
2379 381404.100   61.684436700   31.086961431   180.2789   6   4   0.5504   0.2597   1.2979  -0.0286  -0.3508   0.7408   0.00    0.0
2379 381404.200   61.684431062   31.086973695   180.3195   6   4   0.5449   0.2581   1.2826  -0.0281  -0.3481   0.7310   0.00    0.0
2379 381404.300   61.684425110   31.086985911   180.3047   6   4   0.5396   0.2567   1.2686  -0.0279  -0.3456   0.7218   0.00    0.0
2379 381404.400   61.684419035   31.086998048   180.2655   6   4   0.5346   0.2552   1.2556  -0.0282  -0.3432   0.7131   0.00    0.0
2379 381404.500   61.684412885   31.087010119   180.2183   6   4   0.5298   0.2538   1.2438  -0.0286  -0.3410   0.7050   0.00    0.0
2379 381404.600   61.684406657   31.087022143   180.1652   6   4   0.5251   0.2525   1.2328  -0.0293  -0.3388   0.6974   0.00    0.0
2379 381404.700   61.684400439   31.087034046   180.1162   6   4   0.5207   0.2512   1.2227  -0.0300  -0.3367   0.6902   0.00    0.0
2379 381404.800   61.684394257   31.087045912   180.0869   6   4   0.5165   0.2499   1.2134  -0.0307  -0.3346   0.6836   0.00    0.0
2379 381404.900   61.684388290   31.087057621   180.1289   6   4   0.5125   0.2487   1.2047  -0.0314  -0.3325   0.6774   0.00    0.0
2379 381405.000   61.684382439   31.087069185   180.2219   6   4   0.5077   0.2475   1.1954  -0.0321  -0.3305   0.6703   0.00    0.0
2379 381405.100   61.684376702   31.087080628   180.3571   6   4   0.5034   0.2463   1.1866  -0.0327  -0.3285   0.6637   0.00    0.0
2379 381405.200   61.684370913   31.087091943   180.5020   6   4   0.4993   0.2452   1.1784  -0.0332  -0.3265   0.6576   0.00    0.0
2379 381405.300   61.684364979   31.087103119   180.6265   6   4   0.4955   0.2441   1.1706  -0.0336  -0.3245   0.6519   0.00    0.0
2379 381405.400   61.684358865   31.087114126   180.7254   6   4   0.4920   0.2430   1.1633  -0.0339  -0.3225   0.6466   0.00    0.0
2379 381405.500   61.684352499   31.087125050   180.7733   6   4   0.4886   0.2419   1.1562  -0.0341  -0.3205   0.6416   0.00    0.0
2379 381405.600   61.684346025   31.087135910   180.7989   6   4   0.4855   0.2409   1.1495  -0.0342  -0.3185   0.6368   0.00    0.0
2379 381405.700   61.684339414   31.087146667   180.8051   6   4   0.4825   0.2398   1.1429  -0.0342  -0.3165   0.6322   0.00    0.0
2379 381405.800   61.684332816   31.087157348   180.8076   6   4   0.4796   0.2388   1.1366  -0.0342  -0.3146   0.6278   0.00    0.0
2379 381405.900   61.684326092   31.087167955   180.7873   6   4   0.4768   0.2378   1.1304  -0.0341  -0.3126   0.6235   0.00    0.0
2379 381406.000   61.684319323   31.087178408   180.7757   6   4   0.4742   0.2369   1.1243  -0.0339  -0.3107   0.6194   0.00    0.0
2379 381406.100   61.684312480   31.087188805   180.7400   6   4   0.4724   0.2359   1.1194  -0.0336  -0.3087   0.6164   0.00    0.0
2379 381406.200   61.684305679   31.087199102   180.7095   6   4   0.4698   0.2350   1.1135  -0.0333  -0.3068   0.6124   0.00    0.0
2379 381406.300   61.684298692   31.087209320   180.6527   6   4   0.4672   0.2341   1.1077  -0.0329  -0.3049   0.6085   0.00    0.0
2379 381406.400   61.684292760   31.087219427   180.8396   6   4   0.4654   0.2332   1.1033  -0.0324  -0.3030   0.6056   0.00    0.0
2379 381406.500   61.684286753   31.087229417   181.0278   6   4   0.4636   0.2324   1.0988  -0.0321  -0.3012   0.6028   0.00    0.0
2379 381406.600   61.684280627   31.087239298   181.2066   6   4   0.4617   0.2315   1.0942  -0.0319  -0.2994   0.5999   0.00    0.0
2379 381406.700   61.684274478   31.087249087   181.3761   6   4   0.4598   0.2307   1.0897  -0.0316  -0.2976   0.5969   0.00    0.0
2379 381406.800   61.684268196   31.087258800   181.5265   6   4   0.4579   0.2299   1.0851  -0.0314  -0.2959   0.5940   0.00    0.0
2379 381406.900   61.684261822   31.087268408   181.6541   6   4   0.4560   0.2291   1.0806  -0.0312  -0.2942   0.5910   0.00    0.0
2379 381407.000   61.684255359   31.087277970   181.7686   6   4   0.4541   0.2283   1.0760  -0.0309  -0.2926   0.5880   0.00    0.0
2379 381407.100   61.684248827   31.087287446   181.8632   6   4   0.4523   0.2275   1.0715  -0.0306  -0.2909   0.5851   0.00    0.0
2379 381407.200   61.684242217   31.087296856   181.9399   6   4   0.4504   0.2268   1.0669  -0.0302  -0.2893   0.5821   0.00    0.0
2379 381407.300   61.684235533   31.087306262   181.9991   6   4   0.4486   0.2260   1.0623  -0.0298  -0.2876   0.5791   0.00    0.0
2379 381407.400   61.684228825   31.087315643   182.0482   6   4   0.4468   0.2253   1.0577  -0.0293  -0.2860   0.5761   0.00    0.0
2379 381407.500   61.684222164   31.087324915   182.1016   6   4   0.4450   0.2246   1.0532  -0.0289  -0.2845   0.5732   0.00    0.0
2379 381407.600   61.684215463   31.087334216   182.1582   6   4   0.4433   0.2239   1.0488  -0.0284  -0.2829   0.5703   0.00    0.0
2379 381407.700   61.684208785   31.087343468   182.2044   6   4   0.4416   0.2232   1.0444  -0.0280  -0.2814   0.5674   0.00    0.0
2379 381407.800   61.684202166   31.087352712   182.2742   6   4   0.4399   0.2225   1.0400  -0.0275  -0.2799   0.5646   0.00    0.0
2379 381407.900   61.684195560   31.087362010   182.3462   6   4   0.4382   0.2219   1.0358  -0.0271  -0.2784   0.5619   0.00    0.0
2379 381408.000   61.684188938   31.087371234   182.4127   6   4   0.4366   0.2212   1.0316  -0.0267  -0.2770   0.5592   0.00    0.0
2379 381408.100   61.684182363   31.087380444   182.4803   6   4   0.4350   0.2206   1.0275  -0.0263  -0.2756   0.5565   0.00    0.0
2379 381408.200   61.684175813   31.087389644   182.5471   6   4   0.4335   0.2200   1.0234  -0.0259  -0.2742   0.5539   0.00    0.0
2379 381408.300   61.684169306   31.087398864   182.6102   6   4   0.4320   0.2193   1.0195  -0.0255  -0.2729   0.5513   0.00    0.0
2379 381408.400   61.684162845   31.087408116   182.6734   6   4   0.4305   0.2187   1.0156  -0.0252  -0.2716   0.5488   0.00    0.0
2379 381408.500   61.684156380   31.087417451   182.7374   6   4   0.4290   0.2181   1.0118  -0.0248  -0.2703   0.5463   0.00    0.0
2379 381408.600   61.684149947   31.087426852   182.8008   6   4   0.4276   0.2176   1.0081  -0.0245  -0.2690   0.5439   0.00    0.0
2379 381408.700   61.684143552   31.087436353   182.8665   6   4   0.4262   0.2170   1.0044  -0.0242  -0.2677   0.5415   0.00    0.0
2379 381408.800   61.684137192   31.087445922   182.9295   6   4   0.4248   0.2164   1.0009  -0.0239  -0.2665   0.5392   0.00    0.0
2379 381408.900   61.684130834   31.087455543   182.9798   6   4   0.4234   0.2159   0.9974  -0.0237  -0.2653   0.5369   0.00    0.0
2379 381409.000   61.684124485   31.087465191   183.0274   6   4   0.4221   0.2153   0.9940  -0.0235  -0.2641   0.5347   0.00    0.0
2379 381409.100   61.684118183   31.087474872   183.0849   6   4   0.4208   0.2148   0.9907  -0.0232  -0.2630   0.5325   0.00    0.0
2379 381409.200   61.684112024   31.087484566   183.1574   6   4   0.4195   0.2143   0.9874  -0.0230  -0.2618   0.5303   0.00    0.0
2379 381409.300   61.684105928   31.087494361   183.2319   6   4   0.4183   0.2137   0.9842  -0.0229  -0.2607   0.5282   0.00    0.0
2379 381409.400   61.684099841   31.087504229   183.3065   6   4   0.4171   0.2132   0.9811  -0.0227  -0.2596   0.5262   0.00    0.0
2379 381409.500   61.684093772   31.087514221   183.3713   6   4   0.4159   0.2127   0.9781  -0.0225  -0.2585   0.5242   0.00    0.0
2379 381409.600   61.684087740   31.087524308   183.4297   6   4   0.4147   0.2122   0.9751  -0.0224  -0.2575   0.5222   0.00    0.0
2379 381409.700   61.684081772   31.087534525   183.4991   6   4   0.4135   0.2117   0.9722  -0.0223  -0.2564   0.5203   0.00    0.0
2379 381409.800   61.684075875   31.087544838   183.5647   6   4   0.4124   0.2112   0.9693  -0.0222  -0.2554   0.5184   0.00    0.0
2379 381409.900   61.684069984   31.087555282   183.6333   6   4   0.4113   0.2108   0.9665  -0.0221  -0.2544   0.5165   0.00    0.0
2379 381410.000   61.684064164   31.087565839   183.7034   6   4   0.4102   0.2103   0.9637  -0.0220  -0.2534   0.5147   0.00    0.0
2379 381410.100   61.684058351   31.087576446   183.7680   6   4   0.4096   0.2098   0.9616  -0.0218  -0.2524   0.5136   0.00    0.0
2379 381410.200   61.684052585   31.087587231   183.8239   6   4   0.4090   0.2094   0.9595  -0.0216  -0.2514   0.5124   0.00    0.0
2379 381410.300   61.684046841   31.087598166   183.8804   6   4   0.4083   0.2089   0.9573  -0.0215  -0.2504   0.5112   0.00    0.0
2379 381410.400   61.684041140   31.087609243   183.9247   6   4   0.4075   0.2085   0.9552  -0.0214  -0.2495   0.5099   0.00    0.0
2379 381410.500   61.684035509   31.087620485   183.9609   6   4   0.4067   0.2080   0.9531  -0.0213  -0.2485   0.5086   0.00    0.0
2379 381410.600   61.684029953   31.087631902   183.9825   6   4   0.4060   0.2076   0.9510  -0.0212  -0.2476   0.5073   0.00    0.0
2379 381410.700   61.684024455   31.087643444   184.0057   6   4   0.4052   0.2072   0.9489  -0.0212  -0.2467   0.5060   0.00    0.0
2379 381410.800   61.684019019   31.087655087   184.0236   6   4   0.4044   0.2068   0.9468  -0.0211  -0.2458   0.5046   0.00    0.0
2379 381410.900   61.684013634   31.087666842   184.0385   6   4   0.4036   0.2063   0.9447  -0.0211  -0.2449   0.5033   0.00    0.0
2379 381411.000   61.684008254   31.087678717   184.0572   6   4   0.4028   0.2059   0.9426  -0.0210  -0.2440   0.5020   0.00    0.0
2379 381411.100   61.684002319   31.087690617   183.9670   6   4   0.4015   0.2055   0.9400  -0.0211  -0.2432   0.5001   0.00    0.0
2379 381411.200   61.683997057   31.087702684   183.9988   6   4   0.4008   0.2051   0.9380  -0.0210  -0.2423   0.4989   0.00    0.0
2379 381411.300   61.683991803   31.087714870   184.0299   6   4   0.4001   0.2047   0.9361  -0.0209  -0.2415   0.4977   0.00    0.0
2379 381411.400   61.683985991   31.087727091   183.9585   6   4   0.3990   0.2043   0.9336  -0.0209  -0.2406   0.4959   0.00    0.0
2379 381411.500   61.683980272   31.087739412   183.9084   6   4   0.3980   0.2039   0.9312  -0.0210  -0.2398   0.4942   0.00    0.0
2379 381411.600   61.683974601   31.087751781   183.8639   6   4   0.3970   0.2036   0.9288  -0.0210  -0.2390   0.4926   0.00    0.0
2379 381411.700   61.683968997   31.087764284   183.8339   6   4   0.3960   0.2032   0.9265  -0.0209  -0.2382   0.4911   0.00    0.0
2379 381411.800   61.683963444   31.087776890   183.8102   6   4   0.3952   0.2028   0.9243  -0.0209  -0.2374   0.4896   0.00    0.0
2379 381411.900   61.683957890   31.087789527   183.7915   6   4   0.3943   0.2024   0.9221  -0.0209  -0.2366   0.4881   0.00    0.0
2379 381412.000   61.683952355   31.087802245   183.7654   6   4   0.3935   0.2021   0.9200  -0.0209  -0.2358   0.4867   0.00    0.0
2379 381412.100   61.683947273   31.087815038   183.8297   6   4   0.3931   0.2017   0.9184  -0.0207  -0.2351   0.4859   0.00    0.0
2379 381412.200   61.683941796   31.087827798   183.8191   6   4   0.3922   0.2014   0.9163  -0.0208  -0.2343   0.4844   0.00    0.0
2379 381412.300   61.683935742   31.087840489   183.6776   6   4   0.3910   0.2010   0.9136  -0.0212  -0.2336   0.4825   0.00    0.0
2379 381412.400   61.683929900   31.087853260   183.5809   6   4   0.3899   0.2007   0.9110  -0.0215  -0.2329   0.4806   0.00    0.0
2379 381412.500   61.683924156   31.087866072   183.5020   6   4   0.3889   0.2003   0.9086  -0.0216  -0.2322   0.4789   0.00    0.0
2379 381412.600   61.683918530   31.087878952   183.4369   6   4   0.3880   0.2000   0.9062  -0.0216  -0.2315   0.4773   0.00    0.0
2379 381412.700   61.683912944   31.087891869   183.3927   6   4   0.3871   0.1997   0.9039  -0.0216  -0.2308   0.4757   0.00    0.0
2379 381412.800   61.683907253   31.087904773   183.3436   6   4   0.3862   0.1993   0.9017  -0.0216  -0.2301   0.4742   0.00    0.0
2379 381412.900   61.683901569   31.087917658   183.3043   6   4   0.3854   0.1990   0.8995  -0.0216  -0.2294   0.4727   0.00    0.0
2379 381413.000   61.683895781   31.087930526   183.2649   6   4   0.3846   0.1987   0.8974  -0.0216  -0.2287   0.4713   0.00    0.0
2379 381413.100   61.683889970   31.087943374   183.2306   6   4   0.3838   0.1984   0.8954  -0.0216  -0.2280   0.4700   0.00    0.0
2379 381413.200   61.683884139   31.087956069   183.2031   6   4   0.3830   0.1980   0.8934  -0.0217  -0.2273   0.4686   0.00    0.0
2379 381413.300   61.683878377   31.087968788   183.1825   6   4   0.3823   0.1977   0.8915  -0.0217  -0.2267   0.4673   0.00    0.0
2379 381413.400   61.683872648   31.087981417   183.1661   6   4   0.3815   0.1974   0.8896  -0.0218  -0.2260   0.4660   0.00    0.0
2379 381413.500   61.683867019   31.087994011   183.1714   6   4   0.3808   0.1971   0.8877  -0.0219  -0.2254   0.4648   0.00    0.0
2379 381413.600   61.683861449   31.088006621   183.1995   6   4   0.3800   0.1968   0.8859  -0.0220  -0.2247   0.4636   0.00    0.0
2379 381413.700   61.683855817   31.088019163   183.2349   6   4   0.3793   0.1965   0.8841  -0.0221  -0.2241   0.4623   0.00    0.0
2379 381413.800   61.683850109   31.088031595   183.2892   6   4   0.3786   0.1962   0.8824  -0.0222  -0.2235   0.4612   0.00    0.0
2379 381413.900   61.683844300   31.088043910   183.3443   6   4   0.3779   0.1959   0.8807  -0.0224  -0.2229   0.4600   0.00    0.0
2379 381414.000   61.683838390   31.088056155   183.3806   6   4   0.3772   0.1956   0.8790  -0.0225  -0.2223   0.4588   0.00    0.0
2379 381414.100   61.683832425   31.088068307   183.3911   6   4   0.3766   0.1953   0.8773  -0.0226  -0.2217   0.4577   0.00    0.0
2379 381414.200   61.683826529   31.088080314   183.4057   6   4   0.3759   0.1950   0.8756  -0.0228  -0.2211   0.4565   0.00    0.0
2379 381414.300   61.683820667   31.088092191   183.4504   6   4   0.3752   0.1948   0.8740  -0.0229  -0.2205   0.4554   0.00    0.0
2379 381414.400   61.683814907   31.088103986   183.5336   6   4   0.3745   0.1945   0.8723  -0.0231  -0.2200   0.4542   0.00    0.0
2379 381414.500   61.683809093   31.088115676   183.6284   6   4   0.3742   0.1942   0.8711  -0.0231  -0.2194   0.4536   0.00    0.0
2379 381414.600   61.683803084   31.088127297   183.6878   6   4   0.3739   0.1939   0.8699  -0.0232  -0.2188   0.4529   0.00    0.0
2379 381414.700   61.683796980   31.088138853   183.7223   6   4   0.3735   0.1937   0.8686  -0.0232  -0.2183   0.4522   0.00    0.0
2379 381414.800   61.683790749   31.088150324   183.7265   6   4   0.3730   0.1934   0.8673  -0.0233  -0.2177   0.4514   0.00    0.0
2379 381414.900   61.683784497   31.088161630   183.7190   6   4   0.3725   0.1931   0.8661  -0.0235  -0.2172   0.4506   0.00    0.0
2379 381415.000   61.683778248   31.088172810   183.7209   6   4   0.3720   0.1929   0.8648  -0.0236  -0.2166   0.4498   0.00    0.0
2379 381415.100   61.683772047   31.088183841   183.7486   6   4   0.3715   0.1926   0.8635  -0.0237  -0.2161   0.4489   0.00    0.0
2379 381415.200   61.683765891   31.088194750   183.8008   6   4   0.3710   0.1924   0.8622  -0.0238  -0.2156   0.4481   0.00    0.0
2379 381415.300   61.683759234   31.088205550   183.7827   6   4   0.3702   0.1921   0.8605  -0.0241  -0.2151   0.4468   0.00    0.0
2379 381415.400   61.683752596   31.088216236   183.7590   6   4   0.3694   0.1918   0.8589  -0.0242  -0.2145   0.4456   0.00    0.0
2379 381415.500   61.683745992   31.088226856   183.7430   6   4   0.3687   0.1916   0.8573  -0.0244  -0.2140   0.4444   0.00    0.0
2379 381415.600   61.683739292   31.088237334   183.7022   6   4   0.3680   0.1914   0.8558  -0.0245  -0.2135   0.4433   0.00    0.0
2379 381415.700   61.683732515   31.088247715   183.6496   6   4   0.3674   0.1911   0.8543  -0.0247  -0.2131   0.4423   0.00    0.0
2379 381415.800   61.683725740   31.088258013   183.5990   6   4   0.3668   0.1909   0.8529  -0.0248  -0.2126   0.4413   0.00    0.0
2379 381415.900   61.683718946   31.088268145   183.5403   6   4   0.3663   0.1906   0.8515  -0.0250  -0.2121   0.4403   0.00    0.0
2379 381416.000   61.683712062   31.088278170   183.4638   6   4   0.3657   0.1904   0.8501  -0.0251  -0.2116   0.4393   0.00    0.0
2379 381416.100   61.683705097   31.088288131   183.3873   6   4   0.3652   0.1902   0.8487  -0.0253  -0.2111   0.4384   0.00    0.0
2379 381416.200   61.683698093   31.088297925   183.3209   6   4   0.3647   0.1899   0.8474  -0.0254  -0.2107   0.4375   0.00    0.0
2379 381416.300   61.683691094   31.088307645   183.2664   6   4   0.3641   0.1897   0.8461  -0.0255  -0.2102   0.4366   0.00    0.0
2379 381416.400   61.683684109   31.088317273   183.2252   6   4   0.3636   0.1895   0.8448  -0.0257  -0.2097   0.4357   0.00    0.0
2379 381416.500   61.683677172   31.088326818   183.1972   6   4   0.3631   0.1892   0.8435  -0.0258  -0.2093   0.4349   0.00    0.0
2379 381416.600   61.683670279   31.088336278   183.1843   6   4   0.3626   0.1890   0.8422  -0.0260  -0.2088   0.4340   0.00    0.0
2379 381416.700   61.683663493   31.088345679   183.1987   6   4   0.3621   0.1888   0.8410  -0.0261  -0.2084   0.4331   0.00    0.0
2379 381416.800   61.683656741   31.088355061   183.2286   6   4   0.3616   0.1886   0.8397  -0.0262  -0.2080   0.4323   0.00    0.0
2379 381416.900   61.683649970   31.088364342   183.2582   6   4   0.3611   0.1883   0.8385  -0.0264  -0.2075   0.4315   0.00    0.0
2379 381417.000   61.683643313   31.088373565   183.3182   6   4   0.3606   0.1881   0.8373  -0.0266  -0.2071   0.4306   0.00    0.0
2379 381417.100   61.683636533   31.088382737   183.3589   6   4   0.3601   0.1879   0.8361  -0.0267  -0.2067   0.4298   0.00    0.0
2379 381417.200   61.683629724   31.088391883   183.3891   6   4   0.3597   0.1877   0.8350  -0.0269  -0.2062   0.4290   0.00    0.0
2379 381417.300   61.683622881   31.088401001   183.4122   6   4   0.3592   0.1875   0.8338  -0.0270  -0.2058   0.4282   0.00    0.0
2379 381417.400   61.683615993   31.088410153   183.4287   6   4   0.3587   0.1873   0.8327  -0.0272  -0.2054   0.4274   0.00    0.0
2379 381417.500   61.683609039   31.088419295   183.4301   6   4   0.3583   0.1871   0.8315  -0.0273  -0.2050   0.4267   0.00    0.0
2379 381417.600   61.683602088   31.088428493   183.4311   6   4   0.3578   0.1869   0.8304  -0.0275  -0.2046   0.4259   0.00    0.0
2379 381417.700   61.683595143   31.088437726   183.4405   6   4   0.3574   0.1866   0.8293  -0.0276  -0.2042   0.4251   0.00    0.0
2379 381417.800   61.683588285   31.088446991   183.4575   6   4   0.3569   0.1864   0.8282  -0.0277  -0.2038   0.4244   0.00    0.0
2379 381417.900   61.683581492   31.088456382   183.4817   6   4   0.3565   0.1862   0.8272  -0.0279  -0.2034   0.4237   0.00    0.0
2379 381418.000   61.683574745   31.088465810   183.5138   6   4   0.3561   0.1860   0.8261  -0.0280  -0.2030   0.4229   0.00    0.0
2379 381418.100   61.683567996   31.088475315   183.5455   6   4   0.3556   0.1858   0.8251  -0.0282  -0.2026   0.4222   0.00    0.0
2379 381418.200   61.683561251   31.088484884   183.5649   6   4   0.3552   0.1856   0.8240  -0.0283  -0.2022   0.4215   0.00    0.0
2379 381418.300   61.683554541   31.088494437   183.5798   6   4   0.3548   0.1854   0.8229  -0.0284  -0.2018   0.4207   0.00    0.0
2379 381418.400   61.683547867   31.088504093   183.5925   6   4   0.3544   0.1853   0.8219  -0.0286  -0.2015   0.4200   0.00    0.0
2379 381418.500   61.683541206   31.088513856   183.6087   6   4   0.3539   0.1851   0.8209  -0.0287  -0.2011   0.4193   0.00    0.0
2379 381418.600   61.683534620   31.088523676   183.6266   6   4   0.3535   0.1849   0.8198  -0.0288  -0.2007   0.4186   0.00    0.0
2379 381418.700   61.683528065   31.088533677   183.6328   6   4   0.3531   0.1847   0.8188  -0.0290  -0.2003   0.4179   0.00    0.0
2379 381418.800   61.683521560   31.088543843   183.6422   6   4   0.3527   0.1845   0.8179  -0.0291  -0.2000   0.4173   0.00    0.0
2379 381418.900   61.683515121   31.088554141   183.6538   6   4   0.3523   0.1843   0.8169  -0.0292  -0.1996   0.4166   0.00    0.0
2379 381419.000   61.683508728   31.088564566   183.6651   6   4   0.3519   0.1841   0.8159  -0.0294  -0.1992   0.4159   0.00    0.0
2379 381419.100   61.683502404   31.088575116   183.6753   6   4   0.3515   0.1839   0.8149  -0.0295  -0.1989   0.4152   0.00    0.0
2379 381419.200   61.683496106   31.088585778   183.6857   6   4   0.3511   0.1838   0.8140  -0.0297  -0.1986   0.4146   0.00    0.0
2379 381419.300   61.683489874   31.088596527   183.7027   6   4   0.3507   0.1836   0.8131  -0.0298  -0.1982   0.4139   0.00    0.0
2379 381419.400   61.683483683   31.088607416   183.7199   6   4   0.3503   0.1834   0.8122  -0.0300  -0.1979   0.4133   0.00    0.0
2379 381419.500   61.683477522   31.088618350   183.7341   6   4   0.3500   0.1832   0.8113  -0.0301  -0.1975   0.4127   0.00    0.0
2379 381419.600   61.683471417   31.088629394   183.7537   6   4   0.3496   0.1830   0.8104  -0.0302  -0.1972   0.4121   0.00    0.0
2379 381419.700   61.683465338   31.088640555   183.7694   6   4   0.3493   0.1829   0.8095  -0.0304  -0.1969   0.4115   0.00    0.0
2379 381419.800   61.683459292   31.088651768   183.7854   6   4   0.3489   0.1827   0.8086  -0.0305  -0.1966   0.4109   0.00    0.0
2379 381419.900   61.683453292   31.088663046   183.7978   6   4   0.3485   0.1825   0.8077  -0.0306  -0.1962   0.4102   0.00    0.0
2379 381420.000   61.683447343   31.088674388   183.8117   6   4   0.3482   0.1824   0.8069  -0.0308  -0.1959   0.4096   0.00    0.0
2379 381420.100   61.683441399   31.088685846   183.8164   6   4   0.3478   0.1822   0.8060  -0.0309  -0.1956   0.4090   0.00    0.0
2379 381420.200   61.683435508   31.088697290   183.8229   6   4   0.3475   0.1820   0.8051  -0.0310  -0.1953   0.4084   0.00    0.0
2379 381420.300   61.683429645   31.088708788   183.8194   6   4   0.3471   0.1818   0.8043  -0.0311  -0.1949   0.4078   0.00    0.0
2379 381420.400   61.683423826   31.088720351   183.8264   6   4   0.3468   0.1817   0.8034  -0.0313  -0.1946   0.4073   0.00    0.0
2379 381420.500   61.683417973   31.088732079   183.8352   6   4   0.3464   0.1815   0.8026  -0.0314  -0.1943   0.4067   0.00    0.0
2379 381420.600   61.683412179   31.088743801   183.8413   6   4   0.3461   0.1814   0.8018  -0.0315  -0.1940   0.4061   0.00    0.0
2379 381420.700   61.683406428   31.088755594   183.8509   6   4   0.3457   0.1812   0.8010  -0.0316  -0.1937   0.4055   0.00    0.0
2379 381420.800   61.683400664   31.088767463   183.8670   6   4   0.3454   0.1810   0.8001  -0.0317  -0.1934   0.4050   0.00    0.0
2379 381420.900   61.683394940   31.088779353   183.8781   6   4   0.3451   0.1809   0.7993  -0.0319  -0.1931   0.4044   0.00    0.0
2379 381421.000   61.683389252   31.088791284   183.8912   6   4   0.3447   0.1807   0.7985  -0.0320  -0.1928   0.4038   0.00    0.0
2379 381421.100   61.683383621   31.088803252   183.9120   6   4   0.3446   0.1806   0.7981  -0.0318  -0.1924   0.4036   0.00    0.0
2379 381421.200   61.683378003   31.088815304   183.9272   6   4   0.3445   0.1804   0.7976  -0.0318  -0.1921   0.4034   0.00    0.0
2379 381421.300   61.683372429   31.088827361   183.9485   6   4   0.3443   0.1803   0.7971  -0.0318  -0.1917   0.4031   0.00    0.0
2379 381421.400   61.683366864   31.088839468   183.9639   6   4   0.3441   0.1801   0.7966  -0.0319  -0.1914   0.4028   0.00    0.0
2379 381421.500   61.683361310   31.088851611   183.9834   6   4   0.3438   0.1799   0.7961  -0.0321  -0.1912   0.4024   0.00    0.0
2379 381421.600   61.683355784   31.088863802   184.0029   6   4   0.3436   0.1798   0.7955  -0.0322  -0.1909   0.4021   0.00    0.0
2379 381421.700   61.683350258   31.088876068   184.0213   6   4   0.3433   0.1796   0.7950  -0.0323  -0.1906   0.4017   0.00    0.0
2379 381421.800   61.683344750   31.088888332   184.0400   6   4   0.3430   0.1795   0.7944  -0.0324  -0.1903   0.4013   0.00    0.0
2379 381421.900   61.683339247   31.088900644   184.0563   6   4   0.3428   0.1793   0.7938  -0.0325  -0.1900   0.4008   0.00    0.0
2379 381422.000   61.683333734   31.088912988   184.0755   6   4   0.3425   0.1792   0.7932  -0.0327  -0.1898   0.4004   0.00    0.0
2379 381422.100   61.683328181   31.088925364   184.0914   6   4   0.3422   0.1791   0.7925  -0.0328  -0.1895   0.4000   0.00    0.0
2379 381422.200   61.683322705   31.088937771   184.1092   6   4   0.3420   0.1789   0.7919  -0.0329  -0.1892   0.3996   0.00    0.0
2379 381422.300   61.683317147   31.088950153   184.1060   6   4   0.3415   0.1788   0.7909  -0.0332  -0.1890   0.3988   0.00    0.0
2379 381422.400   61.683311616   31.088962571   184.1096   6   4   0.3411   0.1786   0.7900  -0.0334  -0.1888   0.3980   0.00    0.0
2379 381422.500   61.683306130   31.088975007   184.1187   6   4   0.3407   0.1785   0.7891  -0.0336  -0.1886   0.3974   0.00    0.0
2379 381422.600   61.683300668   31.088987454   184.1254   6   4   0.3403   0.1783   0.7882  -0.0337  -0.1883   0.3968   0.00    0.0
2379 381422.700   61.683295191   31.088999850   184.1291   6   4   0.3400   0.1782   0.7874  -0.0338  -0.1880   0.3962   0.00    0.0
2379 381422.800   61.683289649   31.089012243   184.1267   6   4   0.3397   0.1780   0.7866  -0.0339  -0.1878   0.3957   0.00    0.0
2379 381422.900   61.683284066   31.089024563   184.1169   6   4   0.3394   0.1779   0.7859  -0.0340  -0.1875   0.3951   0.00    0.0
2379 381423.000   61.683278504   31.089036848   184.1040   6   4   0.3394   0.1778   0.7854  -0.0340  -0.1872   0.3950   0.00    0.0
2379 381423.100   61.683272863   31.089049082   184.0813   6   4   0.3393   0.1776   0.7849  -0.0341  -0.1870   0.3948   0.00    0.0
2379 381423.200   61.683267127   31.089061218   184.0410   6   4   0.3392   0.1775   0.7844  -0.0341  -0.1867   0.3945   0.00    0.0
2379 381423.300   61.683261089   31.089073283   183.9521   6   4   0.3388   0.1774   0.7836  -0.0343  -0.1865   0.3939   0.00    0.0
2379 381423.400   61.683255568   31.089085433   183.9759   6   4   0.3386   0.1772   0.7832  -0.0342  -0.1861   0.3937   0.00    0.0
2379 381423.500   61.683250012   31.089097497   183.9996   6   4   0.3384   0.1771   0.7828  -0.0341  -0.1858   0.3934   0.00    0.0
2379 381423.600   61.683244431   31.089109443   184.0245   6   4   0.3382   0.1770   0.7824  -0.0342  -0.1856   0.3931   0.00    0.0
2379 381423.700   61.683238813   31.089121322   184.0552   6   4   0.3380   0.1768   0.7819  -0.0343  -0.1853   0.3928   0.00    0.0
2379 381423.800   61.683233163   31.089133085   184.0852   6   4   0.3378   0.1767   0.7815  -0.0344  -0.1851   0.3925   0.00    0.0
2379 381423.900   61.683227478   31.089144753   184.1212   6   4   0.3376   0.1766   0.7810  -0.0345  -0.1849   0.3922   0.00    0.0
2379 381424.000   61.683221760   31.089156342   184.1634   6   4   0.3374   0.1764   0.7805  -0.0346  -0.1846   0.3918   0.00    0.0
2379 381424.100   61.683216003   31.089167824   184.2032   6   4   0.3371   0.1763   0.7800  -0.0347  -0.1844   0.3914   0.00    0.0
2379 381424.200   61.683210185   31.089179234   184.2492   6   4   0.3369   0.1762   0.7795  -0.0348  -0.1842   0.3911   0.00    0.0
2379 381424.300   61.683204362   31.089190546   184.2902   6   4   0.3366   0.1761   0.7790  -0.0349  -0.1839   0.3907   0.00    0.0
2379 381424.400   61.683198446   31.089201782   184.3267   6   4   0.3364   0.1759   0.7784  -0.0350  -0.1837   0.3903   0.00    0.0
2379 381424.500   61.683192498   31.089212921   184.3584   6   4   0.3362   0.1758   0.7779  -0.0350  -0.1834   0.3899   0.00    0.0
2379 381424.600   61.683186482   31.089223932   184.3829   6   4   0.3359   0.1757   0.7773  -0.0351  -0.1832   0.3896   0.00    0.0
2379 381424.700   61.683180410   31.089234911   184.4112   6   4   0.3357   0.1756   0.7768  -0.0352  -0.1830   0.3892   0.00    0.0
2379 381424.800   61.683174257   31.089245782   184.4271   6   4   0.3355   0.1754   0.7763  -0.0352  -0.1827   0.3889   0.00    0.0
2379 381424.900   61.683168090   31.089256546   184.4477   6   4   0.3353   0.1753   0.7758  -0.0353  -0.1825   0.3885   0.00    0.0
2379 381425.000   61.683161879   31.089267257   184.4688   6   4   0.3351   0.1752   0.7753  -0.0354  -0.1823   0.3882   0.00    0.0
2379 381425.100   61.683155645   31.089277856   184.4866   6   4   0.3349   0.1751   0.7748  -0.0355  -0.1821   0.3879   0.00    0.0
2379 381425.200   61.683149386   31.089288392   184.5141   6   4   0.3347   0.1750   0.7743  -0.0356  -0.1819   0.3875   0.00    0.0
2379 381425.300   61.683143086   31.089298838   184.5298   6   4   0.3345   0.1748   0.7738  -0.0357  -0.1816   0.3872   0.00    0.0
2379 381425.400   61.683136742   31.089309188   184.5475   6   4   0.3342   0.1747   0.7733  -0.0357  -0.1814   0.3868   0.00    0.0
2379 381425.500   61.683130328   31.089319508   184.5633   6   4   0.3340   0.1746   0.7728  -0.0358  -0.1812   0.3865   0.00    0.0
2379 381425.600   61.683123882   31.089329684   184.5776   6   4   0.3338   0.1745   0.7722  -0.0359  -0.1810   0.3861   0.00    0.0
2379 381425.700   61.683117433   31.089339782   184.6048   6   4   0.3336   0.1744   0.7718  -0.0360  -0.1808   0.3858   0.00    0.0
2379 381425.800   61.683110933   31.089349786   184.6303   6   4   0.3334   0.1743   0.7713  -0.0361  -0.1806   0.3855   0.00    0.0
2379 381425.900   61.683104421   31.089359739   184.6605   6   4   0.3332   0.1741   0.7709  -0.0362  -0.1804   0.3851   0.00    0.0
2379 381426.000   61.683097919   31.089369591   184.6925   6   4   0.3330   0.1740   0.7704  -0.0362  -0.1802   0.3848   0.00    0.0
2379 381426.100   61.683091364   31.089379430   184.7242   6   4   0.3328   0.1739   0.7699  -0.0363  -0.1800   0.3845   0.00    0.0
2379 381426.200   61.683084781   31.089389213   184.7536   6   4   0.3326   0.1738   0.7695  -0.0364  -0.1798   0.3842   0.00    0.0
2379 381426.300   61.683078166   31.089398891   184.7807   6   4   0.3324   0.1737   0.7690  -0.0365  -0.1796   0.3839   0.00    0.0
2379 381426.400   61.683071483   31.089408611   184.7980   6   4   0.3322   0.1736   0.7686  -0.0365  -0.1793   0.3836   0.00    0.0
2379 381426.500   61.683064798   31.089418274   184.8223   6   4   0.3320   0.1735   0.7681  -0.0366  -0.1791   0.3833   0.00    0.0
2379 381426.600   61.683058096   31.089427900   184.8500   6   4   0.3319   0.1734   0.7677  -0.0367  -0.1789   0.3830   0.00    0.0
2379 381426.700   61.683051370   31.089437499   184.8799   6   4   0.3317   0.1732   0.7672  -0.0368  -0.1787   0.3826   0.00    0.0
2379 381426.800   61.683044625   31.089447119   184.9077   6   4   0.3315   0.1731   0.7668  -0.0368  -0.1785   0.3823   0.00    0.0
2379 381426.900   61.683037889   31.089456725   184.9398   6   4   0.3313   0.1730   0.7663  -0.0369  -0.1784   0.3820   0.00    0.0
2379 381427.000   61.683031194   31.089466312   184.9727   6   4   0.3311   0.1729   0.7659  -0.0370  -0.1782   0.3817   0.00    0.0
2379 381427.100   61.683024437   31.089475868   184.9986   6   4   0.3309   0.1728   0.7655  -0.0371  -0.1780   0.3814   0.00    0.0
2379 381427.200   61.683017730   31.089485453   185.0272   6   4   0.3307   0.1727   0.7650  -0.0371  -0.1778   0.3811   0.00    0.0
2379 381427.300   61.683011026   31.089495078   185.0510   6   4   0.3305   0.1726   0.7646  -0.0372  -0.1776   0.3809   0.00    0.0
2379 381427.400   61.683004352   31.089504747   185.0803   6   4   0.3304   0.1725   0.7642  -0.0373  -0.1774   0.3806   0.00    0.0
2379 381427.500   61.682997705   31.089514426   185.1036   6   4   0.3302   0.1724   0.7638  -0.0373  -0.1772   0.3803   0.00    0.0
2379 381427.600   61.682991061   31.089524153   185.1333   6   4   0.3300   0.1723   0.7634  -0.0374  -0.1770   0.3800   0.00    0.0
2379 381427.700   61.682984446   31.089533944   185.1574   6   4   0.3298   0.1722   0.7629  -0.0375  -0.1768   0.3797   0.00    0.0
2379 381427.800   61.682977833   31.089543755   185.1824   6   4   0.3296   0.1721   0.7625  -0.0375  -0.1767   0.3794   0.00    0.0
2379 381427.900   61.682971199   31.089553681   185.2085   6   4   0.3295   0.1720   0.7621  -0.0376  -0.1765   0.3791   0.00    0.0
2379 381428.000   61.682964661   31.089563619   185.2381   6   4   0.3293   0.1719   0.7617  -0.0377  -0.1763   0.3788   0.00    0.0
2379 381428.100   61.682958132   31.089573654   185.2664   6   4   0.3291   0.1718   0.7613  -0.0378  -0.1761   0.3786   0.00    0.0
2379 381428.200   61.682951615   31.089583745   185.2869   6   4   0.3289   0.1717   0.7609  -0.0379  -0.1759   0.3783   0.00    0.0
2379 381428.300   61.682945147   31.089593922   185.3136   6   4   0.3288   0.1716   0.7605  -0.0379  -0.1758   0.3780   0.00    0.0
2379 381428.400   61.682938709   31.089604149   185.3453   6   4   0.3286   0.1715   0.7601  -0.0380  -0.1756   0.3777   0.00    0.0
2379 381428.500   61.682932304   31.089614462   185.3723   6   4   0.3284   0.1714   0.7597  -0.0380  -0.1754   0.3775   0.00    0.0
2379 381428.600   61.682925917   31.089624868   185.4002   6   4   0.3283   0.1713   0.7593  -0.0381  -0.1752   0.3772   0.00    0.0
2379 381428.700   61.682919579   31.089635346   185.4385   6   4   0.3281   0.1712   0.7589  -0.0382  -0.1751   0.3769   0.00    0.0
2379 381428.800   61.682913291   31.089645949   185.4805   6   4   0.3279   0.1711   0.7586  -0.0382  -0.1749   0.3766   0.00    0.0
2379 381428.900   61.682907036   31.089656680   185.5265   6   4   0.3277   0.1710   0.7582  -0.0383  -0.1747   0.3764   0.00    0.0
2379 381429.000   61.682900825   31.089667487   185.5723   6   4   0.3276   0.1709   0.7578  -0.0384  -0.1746   0.3761   0.00    0.0
2379 381429.100   61.682894662   31.089678355   185.6189   6   4   0.3274   0.1708   0.7574  -0.0385  -0.1744   0.3758   0.00    0.0
2379 381429.200   61.682888543   31.089689334   185.6651   6   4   0.3273   0.1707   0.7570  -0.0385  -0.1742   0.3756   0.00    0.0
2379 381429.300   61.682882503   31.089700373   185.7152   6   4   0.3271   0.1706   0.7567  -0.0386  -0.1741   0.3753   0.00    0.0
2379 381429.400   61.682876455   31.089711470   185.7597   6   4   0.3269   0.1705   0.7563  -0.0387  -0.1739   0.3751   0.00    0.0
2379 381429.500   61.682870466   31.089722648   185.7987   6   4   0.3268   0.1704   0.7559  -0.0387  -0.1737   0.3748   0.00    0.0
2379 381429.600   61.682864491   31.089733915   185.8334   6   4   0.3266   0.1703   0.7556  -0.0388  -0.1736   0.3746   0.00    0.0
2379 381429.700   61.682858589   31.089745248   185.8668   6   4   0.3265   0.1702   0.7552  -0.0388  -0.1734   0.3743   0.00    0.0
2379 381429.800   61.682852709   31.089756646   185.8862   6   4   0.3263   0.1701   0.7548  -0.0389  -0.1732   0.3741   0.00    0.0
2379 381429.900   61.682846835   31.089768176   185.9073   6   4   0.3261   0.1700   0.7545  -0.0390  -0.1731   0.3738   0.00    0.0
2379 381430.000   61.682841038   31.089779765   185.9239   6   4   0.3260   0.1700   0.7541  -0.0390  -0.1729   0.3735   0.00    0.0
2379 381430.100   61.682835318   31.089791432   185.9450   6   4   0.3258   0.1699   0.7538  -0.0391  -0.1728   0.3733   0.00    0.0
2379 381430.200   61.682829594   31.089803234   185.9614   6   4   0.3257   0.1698   0.7534  -0.0392  -0.1726   0.3731   0.00    0.0
2379 381430.300   61.682823930   31.089815085   185.9763   6   4   0.3255   0.1697   0.7531  -0.0392  -0.1725   0.3728   0.00    0.0
2379 381430.400   61.682818283   31.089827039   185.9928   6   4   0.3254   0.1696   0.7527  -0.0393  -0.1723   0.3726   0.00    0.0
2379 381430.500   61.682812671   31.089839026   186.0058   6   4   0.3252   0.1695   0.7524  -0.0394  -0.1722   0.3723   0.00    0.0
2379 381430.600   61.682807104   31.089851108   186.0218   6   4   0.3251   0.1694   0.7520  -0.0394  -0.1720   0.3721   0.00    0.0
2379 381430.700   61.682801529   31.089863251   186.0360   6   4   0.3249   0.1693   0.7517  -0.0395  -0.1718   0.3718   0.00    0.0
2379 381430.800   61.682796026   31.089875477   186.0502   6   4   0.3248   0.1692   0.7513  -0.0395  -0.1717   0.3716   0.00    0.0
2379 381430.900   61.682790495   31.089887740   186.0615   6   4   0.3246   0.1692   0.7510  -0.0396  -0.1715   0.3714   0.00    0.0
2379 381431.000   61.682785036   31.089900055   186.0688   6   4   0.3245   0.1691   0.7507  -0.0397  -0.1714   0.3711   0.00    0.0
2379 381431.100   61.682779556   31.089912404   186.0789   6   4   0.3243   0.1690   0.7503  -0.0397  -0.1713   0.3709   0.00    0.0
2379 381431.200   61.682774127   31.089924834   186.0881   6   4   0.3242   0.1689   0.7500  -0.0398  -0.1711   0.3707   0.00    0.0
2379 381431.300   61.682768709   31.089937251   186.1009   6   4   0.3240   0.1688   0.7497  -0.0399  -0.1710   0.3704   0.00    0.0
2379 381431.400   61.682763255   31.089949724   186.1193   6   4   0.3239   0.1687   0.7494  -0.0399  -0.1708   0.3702   0.00    0.0
2379 381431.500   61.682757823   31.089962184   186.1420   6   4   0.3240   0.1686   0.7493  -0.0400  -0.1707   0.3703   0.00    0.0
2379 381431.600   61.682752398   31.089974678   186.1713   6   4   0.3240   0.1686   0.7491  -0.0400  -0.1705   0.3703   0.00    0.0
2379 381431.700   61.682746950   31.089987148   186.2006   6   4   0.3240   0.1685   0.7490  -0.0401  -0.1704   0.3703   0.00    0.0
2379 381431.800   61.682741492   31.089999612   186.2310   6   4   0.3239   0.1684   0.7488  -0.0401  -0.1702   0.3702   0.00    0.0
2379 381431.900   61.682735893   31.090012059   186.2511   6   4   0.3236   0.1683   0.7484  -0.0402  -0.1701   0.3698   0.00    0.0
2379 381432.000   61.682730334   31.090024442   186.2812   6   4   0.3234   0.1682   0.7480  -0.0403  -0.1700   0.3694   0.00    0.0
2379 381432.100   61.682724882   31.090036739   186.3257   6   4   0.3234   0.1681   0.7478  -0.0403  -0.1698   0.3694   0.00    0.0
2379 381432.200   61.682719321   31.090049021   186.3551   6   4   0.3231   0.1681   0.7474  -0.0404  -0.1697   0.3690   0.00    0.0
2379 381432.300   61.682713769   31.090061219   186.3871   6   4   0.3229   0.1680   0.7470  -0.0404  -0.1696   0.3687   0.00    0.0
2379 381432.400   61.682708237   31.090073352   186.4203   6   4   0.3227   0.1679   0.7467  -0.0405  -0.1694   0.3684   0.00    0.0
2379 381432.500   61.682702699   31.090085448   186.4557   6   4   0.3226   0.1678   0.7463  -0.0405  -0.1693   0.3681   0.00    0.0
2379 381432.600   61.682697116   31.090097560   186.5012   6   4   0.3224   0.1677   0.7460  -0.0406  -0.1692   0.3679   0.00    0.0
2379 381432.700   61.682691569   31.090109614   186.5526   6   4   0.3222   0.1677   0.7456  -0.0406  -0.1690   0.3676   0.00    0.0
2379 381432.800   61.682685971   31.090121578   186.6117   6   4   0.3221   0.1676   0.7453  -0.0407  -0.1689   0.3674   0.00    0.0
2379 381432.900   61.682680369   31.090133547   186.6650   6   4   0.3220   0.1675   0.7449  -0.0407  -0.1687   0.3672   0.00    0.0
2379 381433.000   61.682674702   31.090145438   186.7173   6   4   0.3218   0.1674   0.7446  -0.0408  -0.1686   0.3669   0.00    0.0
2379 381433.100   61.682669024   31.090157249   186.7684   6   4   0.3217   0.1673   0.7443  -0.0408  -0.1685   0.3667   0.00    0.0
2379 381433.200   61.682663327   31.090168957   186.8200   6   4   0.3216   0.1673   0.7440  -0.0409  -0.1684   0.3665   0.00    0.0
2379 381433.300   61.682657558   31.090180599   186.8608   6   4   0.3214   0.1672   0.7437  -0.0409  -0.1682   0.3663   0.00    0.0
2379 381433.400   61.682651764   31.090192133   186.9104   6   4   0.3213   0.1671   0.7434  -0.0410  -0.1681   0.3661   0.00    0.0
2379 381433.500   61.682645875   31.090203574   186.9539   6   4   0.3212   0.1670   0.7431  -0.0410  -0.1680   0.3659   0.00    0.0
2379 381433.600   61.682639949   31.090214967   186.9975   6   4   0.3210   0.1670   0.7428  -0.0411  -0.1678   0.3657   0.00    0.0
2379 381433.700   61.682633998   31.090226250   187.0387   6   4   0.3209   0.1669   0.7425  -0.0411  -0.1677   0.3654   0.00    0.0
2379 381433.800   61.682627982   31.090237473   187.0745   6   4   0.3208   0.1668   0.7422  -0.0411  -0.1676   0.3652   0.00    0.0
2379 381433.900   61.682621950   31.090248620   187.1095   6   4   0.3206   0.1667   0.7419  -0.0412  -0.1674   0.3650   0.00    0.0
2379 381434.000   61.682615867   31.090259669   187.1505   6   4   0.3205   0.1667   0.7416  -0.0412  -0.1673   0.3648   0.00    0.0
2379 381434.100   61.682609719   31.090270622   187.1795   6   4   0.3204   0.1666   0.7413  -0.0413  -0.1672   0.3646   0.00    0.0
2379 381434.200   61.682603489   31.090281503   187.2091   6   4   0.3203   0.1665   0.7410  -0.0413  -0.1671   0.3644   0.00    0.0
2379 381434.300   61.682597228   31.090292222   187.2390   6   4   0.3201   0.1664   0.7408  -0.0414  -0.1670   0.3642   0.00    0.0
2379 381434.400   61.682590949   31.090302896   187.2734   6   4   0.3200   0.1664   0.7405  -0.0415  -0.1668   0.3640   0.00    0.0
2379 381434.500   61.682584644   31.090313426   187.3006   6   4   0.3199   0.1663   0.7402  -0.0415  -0.1667   0.3638   0.00    0.0
2379 381434.600   61.682578318   31.090323897   187.3329   6   4   0.3198   0.1662   0.7399  -0.0416  -0.1666   0.3636   0.00    0.0
2379 381434.700   61.682571908   31.090334288   187.3627   6   4   0.3197   0.1661   0.7397  -0.0416  -0.1665   0.3634   0.00    0.0
2379 381434.800   61.682565510   31.090344572   187.3944   6   4   0.3195   0.1661   0.7394  -0.0417  -0.1664   0.3633   0.00    0.0
2379 381434.900   61.682559057   31.090354834   187.4145   6   4   0.3194   0.1660   0.7391  -0.0417  -0.1662   0.3631   0.00    0.0
2379 381435.000   61.682552610   31.090364998   187.4330   6   4   0.3193   0.1659   0.7389  -0.0417  -0.1661   0.3629   0.00    0.0
2379 381435.100   61.682546097   31.090375123   187.4427   6   4   0.3192   0.1659   0.7386  -0.0418  -0.1660   0.3627   0.00    0.0
2379 381435.200   61.682539581   31.090385153   187.4436   6   4   0.3191   0.1658   0.7384  -0.0418  -0.1659   0.3625   0.00    0.0
2379 381435.300   61.682533035   31.090395134   187.4427   6   4   0.3189   0.1657   0.7381  -0.0419  -0.1658   0.3623   0.00    0.0
2379 381435.400   61.682526432   31.090405076   187.4340   6   4   0.3188   0.1656   0.7378  -0.0419  -0.1657   0.3621   0.00    0.0
2379 381435.500   61.682519810   31.090414939   187.4370   6   4   0.3187   0.1656   0.7376  -0.0420  -0.1656   0.3620   0.00    0.0
2379 381435.600   61.682513163   31.090424821   187.4361   6   4   0.3186   0.1655   0.7373  -0.0421  -0.1654   0.3618   0.00    0.0
2379 381435.700   61.682506501   31.090434632   187.4420   6   4   0.3184   0.1654   0.7370  -0.0421  -0.1653   0.3616   0.00    0.0
2379 381435.800   61.682499838   31.090444447   187.4496   6   4   0.3183   0.1654   0.7368  -0.0422  -0.1652   0.3614   0.00    0.0
2379 381435.900   61.682493142   31.090454247   187.4593   6   4   0.3182   0.1653   0.7365  -0.0422  -0.1651   0.3612   0.00    0.0
2379 381436.000   61.682486486   31.090464029   187.4743   6   4   0.3181   0.1652   0.7363  -0.0423  -0.1650   0.3610   0.00    0.0
2379 381436.100   61.682479809   31.090473841   187.4934   6   4   0.3180   0.1651   0.7360  -0.0423  -0.1649   0.3608   0.00    0.0
2379 381436.200   61.682473153   31.090483557   187.5060   6   4   0.3178   0.1651   0.7357  -0.0424  -0.1648   0.3606   0.00    0.0
2379 381436.300   61.682466502   31.090493335   187.5251   6   4   0.3177   0.1650   0.7355  -0.0424  -0.1647   0.3605   0.00    0.0
2379 381436.400   61.682459868   31.090503160   187.5422   6   4   0.3176   0.1649   0.7353  -0.0425  -0.1646   0.3603   0.00    0.0
2379 381436.500   61.682453238   31.090512945   187.5571   6   4   0.3175   0.1649   0.7350  -0.0425  -0.1645   0.3601   0.00    0.0
2379 381436.600   61.682446631   31.090522801   187.5744   6   4   0.3174   0.1648   0.7348  -0.0426  -0.1644   0.3600   0.00    0.0
2379 381436.700   61.682440023   31.090532691   187.5937   6   4   0.3173   0.1647   0.7346  -0.0426  -0.1643   0.3598   0.00    0.0
2379 381436.800   61.682433438   31.090542604   187.6161   6   4   0.3172   0.1647   0.7343  -0.0427  -0.1642   0.3596   0.00    0.0
2379 381436.900   61.682426889   31.090552578   187.6376   6   4   0.3171   0.1646   0.7341  -0.0427  -0.1641   0.3595   0.00    0.0
2379 381437.000   61.682420320   31.090562609   187.6574   6   4   0.3169   0.1645   0.7339  -0.0428  -0.1640   0.3593   0.00    0.0
2379 381437.100   61.682413798   31.090572627   187.6818   6   4   0.3168   0.1645   0.7336  -0.0428  -0.1639   0.3591   0.00    0.0
2379 381437.200   61.682407329   31.090582771   187.7072   6   4   0.3167   0.1644   0.7334  -0.0429  -0.1638   0.3590   0.00    0.0
2379 381437.300   61.682400826   31.090592940   187.7324   6   4   0.3166   0.1643   0.7331  -0.0429  -0.1637   0.3588   0.00    0.0
2379 381437.400   61.682394390   31.090603190   187.7600   6   4   0.3165   0.1643   0.7329  -0.0430  -0.1636   0.3586   0.00    0.0
2379 381437.500   61.682387964   31.090613470   187.7845   6   4   0.3164   0.1642   0.7327  -0.0430  -0.1635   0.3584   0.00    0.0
2379 381437.600   61.682381534   31.090623816   187.8089   6   4   0.3163   0.1641   0.7324  -0.0431  -0.1634   0.3583   0.00    0.0
2379 381437.700   61.682374697   31.090634070   187.7419   6   4   0.3160   0.1641   0.7319  -0.0433  -0.1634   0.3578   0.00    0.0
2379 381437.800   61.682368001   31.090644394   187.6924   6   4   0.3158   0.1640   0.7315  -0.0434  -0.1633   0.3574   0.00    0.0
2379 381437.900   61.682361362   31.090654789   187.6500   6   4   0.3156   0.1639   0.7311  -0.0435  -0.1632   0.3571   0.00    0.0
2379 381438.000   61.682355248   31.090665421   187.7039   6   4   0.3156   0.1639   0.7309  -0.0434  -0.1631   0.3571   0.00    0.0
2379 381438.100   61.682349129   31.090676122   187.7525   6   4   0.3155   0.1638   0.7308  -0.0434  -0.1629   0.3570   0.00    0.0
2379 381438.200   61.682343022   31.090686860   187.8103   6   4   0.3155   0.1637   0.7306  -0.0434  -0.1628   0.3570   0.00    0.0
2379 381438.300   61.682336919   31.090697675   187.8719   6   4   0.3154   0.1637   0.7305  -0.0434  -0.1627   0.3569   0.00    0.0
2379 381438.400   61.682330823   31.090708521   187.9223   6   4   0.3153   0.1636   0.7303  -0.0434  -0.1626   0.3568   0.00    0.0
2379 381438.500   61.682324725   31.090719409   187.9687   6   4   0.3152   0.1635   0.7301  -0.0435  -0.1625   0.3566   0.00    0.0
2379 381438.600   61.682318703   31.090730350   188.0205   6   4   0.3152   0.1635   0.7299  -0.0435  -0.1624   0.3565   0.00    0.0
2379 381438.700   61.682312697   31.090741394   188.0602   6   4   0.3151   0.1634   0.7297  -0.0436  -0.1623   0.3563   0.00    0.0
2379 381438.800   61.682306345   31.090752380   188.0221   6   4   0.3148   0.1633   0.7292  -0.0438  -0.1623   0.3559   0.00    0.0
2379 381438.900   61.682300142   31.090763514   187.9926   6   4   0.3146   0.1633   0.7288  -0.0439  -0.1623   0.3556   0.00    0.0
2379 381439.000   61.682294084   31.090774808   187.9773   6   4   0.3144   0.1632   0.7284  -0.0440  -0.1622   0.3552   0.00    0.0
2379 381439.100   61.682288102   31.090786210   187.9684   6   4   0.3142   0.1632   0.7281  -0.0441  -0.1622   0.3550   0.00    0.0
2379 381439.200   61.682282232   31.090797725   187.9695   6   4   0.3141   0.1631   0.7277  -0.0442  -0.1621   0.3547   0.00    0.0
2379 381439.300   61.682276457   31.090809338   187.9820   6   4   0.3139   0.1630   0.7274  -0.0442  -0.1620   0.3545   0.00    0.0
2379 381439.400   61.682270739   31.090821058   188.0027   6   4   0.3138   0.1630   0.7271  -0.0442  -0.1619   0.3543   0.00    0.0
2379 381439.500   61.682265093   31.090832865   188.0173   6   4   0.3137   0.1629   0.7268  -0.0443  -0.1618   0.3541   0.00    0.0
2379 381439.600   61.682259456   31.090844738   188.0413   6   4   0.3136   0.1628   0.7266  -0.0443  -0.1617   0.3539   0.00    0.0
2379 381439.700   61.682253882   31.090856634   188.0660   6   4   0.3135   0.1628   0.7263  -0.0444  -0.1616   0.3537   0.00    0.0
2379 381439.800   61.682248327   31.090868663   188.0941   6   4   0.3134   0.1627   0.7261  -0.0444  -0.1616   0.3535   0.00    0.0
2379 381439.900   61.682242816   31.090880743   188.1220   6   4   0.3133   0.1627   0.7258  -0.0445  -0.1615   0.3533   0.00    0.0
2379 381440.000   61.682237300   31.090892888   188.1469   6   4   0.3132   0.1626   0.7256  -0.0445  -0.1614   0.3532   0.00    0.0
2379 381440.100   61.682231844   31.090905054   188.1715   6   4   0.3130   0.1625   0.7253  -0.0446  -0.1613   0.3530   0.00    0.0
2379 381440.200   61.682226414   31.090917338   188.1982   6   4   0.3129   0.1625   0.7251  -0.0447  -0.1612   0.3528   0.00    0.0
2379 381440.300   61.682220991   31.090929577   188.2168   6   4   0.3128   0.1624   0.7248  -0.0447  -0.1612   0.3526   0.00    0.0
2379 381440.400   61.682215559   31.090941873   188.2411   6   4   0.3127   0.1624   0.7246  -0.0448  -0.1611   0.3525   0.00    0.0
2379 381440.500   61.682210083   31.090954213   188.2523   6   4   0.3126   0.1623   0.7244  -0.0448  -0.1610   0.3523   0.00    0.0
2379 381440.600   61.682204601   31.090966529   188.2562   6   4   0.3125   0.1622   0.7241  -0.0449  -0.1609   0.3521   0.00    0.0
2379 381440.700   61.682199069   31.090978889   188.2616   6   4   0.3124   0.1622   0.7239  -0.0449  -0.1608   0.3519   0.00    0.0
2379 381440.800   61.682193565   31.090991252   188.2739   6   4   0.3123   0.1621   0.7236  -0.0449  -0.1608   0.3518   0.00    0.0
2379 381440.900   61.682188085   31.091003637   188.2931   6   4   0.3121   0.1621   0.7234  -0.0450  -0.1607   0.3516   0.00    0.0
2379 381441.000   61.682182581   31.091015988   188.3191   6   4   0.3120   0.1620   0.7231  -0.0450  -0.1606   0.3514   0.00    0.0
2379 381441.100   61.682177077   31.091028363   188.3395   6   4   0.3119   0.1620   0.7229  -0.0451  -0.1605   0.3512   0.00    0.0
2379 381441.200   61.682171536   31.091040660   188.3562   6   4   0.3118   0.1619   0.7226  -0.0451  -0.1605   0.3511   0.00    0.0
2379 381441.300   61.682166011   31.091052976   188.3792   6   4   0.3117   0.1618   0.7224  -0.0452  -0.1604   0.3509   0.00    0.0
2379 381441.400   61.682160452   31.091065254   188.4062   6   4   0.3116   0.1618   0.7222  -0.0452  -0.1603   0.3507   0.00    0.0
2379 381441.500   61.682154902   31.091077458   188.4323   6   4   0.3115   0.1617   0.7220  -0.0453  -0.1602   0.3506   0.00    0.0
2379 381441.600   61.682149327   31.091089578   188.4606   6   4   0.3114   0.1617   0.7218  -0.0453  -0.1602   0.3504   0.00    0.0
2379 381441.700   61.682143709   31.091101689   188.4876   6   4   0.3113   0.1616   0.7215  -0.0454  -0.1601   0.3502   0.00    0.0
2379 381441.800   61.682138077   31.091113714   188.5068   6   4   0.3112   0.1616   0.7213  -0.0454  -0.1600   0.3501   0.00    0.0
2379 381441.900   61.682132362   31.091125651   188.5179   6   4   0.3111   0.1615   0.7211  -0.0455  -0.1600   0.3499   0.00    0.0
2379 381442.000   61.682126653   31.091137540   188.5340   6   4   0.3110   0.1614   0.7209  -0.0455  -0.1599   0.3498   0.00    0.0
2379 381442.100   61.682120857   31.091149351   188.5488   6   4   0.3109   0.1614   0.7207  -0.0456  -0.1598   0.3496   0.00    0.0
2379 381442.200   61.682115051   31.091161102   188.5668   6   4   0.3108   0.1613   0.7205  -0.0456  -0.1597   0.3494   0.00    0.0
2379 381442.300   61.682109180   31.091172756   188.5820   6   4   0.3107   0.1613   0.7202  -0.0457  -0.1597   0.3493   0.00    0.0
2379 381442.400   61.682103317   31.091184315   188.6099   6   4   0.3106   0.1612   0.7200  -0.0457  -0.1596   0.3491   0.00    0.0
2379 381442.500   61.682097402   31.091195817   188.6315   6   4   0.3105   0.1612   0.7198  -0.0458  -0.1595   0.3490   0.00    0.0
2379 381442.600   61.682091487   31.091207200   188.6586   6   4   0.3104   0.1611   0.7196  -0.0458  -0.1595   0.3488   0.00    0.0
2379 381442.700   61.682085541   31.091218501   188.6944   6   4   0.3103   0.1611   0.7194  -0.0459  -0.1594   0.3487   0.00    0.0
2379 381442.800   61.682079588   31.091229681   188.7331   6   4   0.3102   0.1610   0.7192  -0.0459  -0.1593   0.3485   0.00    0.0
2379 381442.900   61.682073590   31.091240787   188.7632   6   4   0.3101   0.1610   0.7190  -0.0460  -0.1593   0.3483   0.00    0.0
2379 381443.000   61.682067533   31.091251836   188.8009   6   4   0.3100   0.1609   0.7188  -0.0460  -0.1592   0.3482   0.00    0.0
2379 381443.100   61.682061472   31.091262811   188.8354   6   4   0.3099   0.1608   0.7186  -0.0461  -0.1591   0.3480   0.00    0.0
2379 381443.200   61.682055375   31.091273686   188.8775   6   4   0.3098   0.1608   0.7184  -0.0461  -0.1591   0.3479   0.00    0.0
